time_usec,acc_x,acc_y,acc_z,rot_x,rot_y,rot_z,label,type
145129045776,10.299306869506836,0.06699903309345245,0.02153540402650833,0.06146650388836861,-0.06497887521982193,0.0019088976550847292,Normal,Normal
145129048211,10.119845390319824,-0.016749758273363113,-0.07178468257188797,0.10972344130277634,0.004046862944960594,7.635590736754239e-05,Normal,Normal
145129050647,9.870991706848145,-0.16749759018421173,-0.33768710494041443,0.14454172551631927,0.06452073901891708,0.008017370477318764,Normal,Normal
145129053082,9.59073257446289,-0.2392822653055191,-0.7564310431480408,0.17386239767074585,0.10666920244693756,0.0165692325681448,Normal,Normal
145129055517,9.411270141601562,-0.23449662327766418,-1.2711870670318604,0.19951798021793365,0.11644276231527328,0.02817532978951931,Normal,Normal
145129057952,9.27727222442627,-0.1579262912273407,-1.7668004035949707,0.20990239083766937,0.10300412029027939,0.031229566782712936,Normal,Normal
145129060387,9.147761344909668,-0.035892341285943985,-2.190629243850708,0.21173493564128876,0.07001836597919464,0.023899398744106293,Normal,Normal
145129062823,9.104690551757812,0.040677983313798904,-2.590529680252075,0.21112407743930817,0.02053973823785782,0.015958385542035103,Normal,Normal
145129065258,9.09990406036377,0.062213387340307236,-2.8680970668792725,0.19951798021793365,-0.03687990456819534,0.0019088976550847292,Normal,Normal
145129067693,9.097511291503906,0.02153540402650833,-3.0020952224731445,0.17813833057880402,-0.09246700257062912,-0.005421269219368696,Normal,Normal
145129070128,9.138189315795898,-0.05503492057323456,-2.999702215194702,0.14454172551631927,-0.13950224220752716,-0.00786465872079134,Normal,Normal
145129072563,9.20997428894043,-0.10049854964017868,-2.865704298019409,0.11827529966831207,-0.16401249170303345,-0.009697199799120426,Normal,Normal
145129074998,9.339486122131348,-0.12203395366668701,-2.652743101119995,0.08162446320056915,-0.17439688742160797,-0.004199574701488018,Normal,Normal
145129077434,9.523733139038086,-0.08135596662759781,-2.386840581893921,0.043141089379787445,-0.16034740209579468,0.0019088976550847292,Normal,Normal
145129079869,9.617053031921387,-0.019142581149935722,-2.059023857116699,0.02298312820494175,-0.13217207789421082,0.00862821750342846,Normal,Normal
145129082304,9.717552185058594,0.062213387340307236,-1.800299882888794,-0.016111096367239952,-0.07841751724481583,0.0165692325681448,Normal,Normal
145129084739,9.803693771362305,0.10767702013254166,-1.6663018465042114,-0.02283041551709175,-0.031382277607917786,0.02023431472480297,Normal,Normal
145129087174,9.679266929626465,0.12203395366668701,-1.5777673721313477,-0.03077143058180809,0.019928891211748123,0.023899398744106293,Normal,Normal
145129089610,9.49501895904541,0.07178468257188797,-1.6016956567764282,-0.04787515476346016,0.05841226875782013,0.028786176815629005,Normal,Normal
145129092045,9.296415328979492,0.007178467698395252,-1.7261223793029785,-0.02832804247736931,0.07795938104391098,0.03489464893937111,Normal,Normal
145129094480,9.05444049835205,-0.064606212079525,-1.896012783050537,-0.03321481868624687,0.07918107509613037,0.04100312292575836,Normal,Normal
145129096915,8.85344409942627,-0.1339980661869049,-2.056631088256836,-0.008170082233846188,0.0626882016658783,0.04772244393825531,Normal,Normal
145129099350,8.738588333129883,-0.16031911969184875,-2.183450698852539,0.018096350133419037,0.02664821222424507,0.05138752609491348,Normal,Normal
145129101786,8.67607593536377,-0.15553347766399384,-2.2432711124420166,0.02053973823785782,-0.012446013279259205,0.049554985016584396,Normal,Normal
145129104221,8.762516975402832,-0.10289137065410614,-2.2408783435821533,0.060244809836149216,-0.056427016854286194,0.045889899134635925,Normal,Normal
145129106656,8.97787094116211,-0.035892341285943985,-2.1882362365722656,0.08712209016084671,-0.09613208472728729,0.037948887795209885,Normal,Normal
145129109091,9.245866775512695,0.04785645380616188,-2.0374884605407715,0.09689565002918243,-0.12362021207809448,0.024510245770215988,Normal,Normal
145129111526,9.48784065246582,0.1052841991186142,-1.8146568536758423,0.13232478499412537,-0.1333937644958496,0.009849912486970425,Normal,Normal
145129113962,9.657731056213379,0.11246266216039658,-1.5490535497665405,0.14576342701911926,-0.12300936877727509,7.635590736754239e-05,Normal,Normal
145129116397,9.763015747070312,0.07657032459974289,-1.2759727239608765,0.1543152928352356,-0.08635853230953217,-0.008475505746901035,Normal,Normal
145129118832,9.827920913696289,0.04546362906694412,-1.0630114078521729,0.1653105467557907,-0.03321481868624687,-0.00908635277301073,Normal,Normal
145129121267,9.798908233642578,0.03349951654672623,-0.9577272534370422,0.15675868093967438,0.03092414326965809,-0.00786465872079134,Normal,Normal
145129123702,9.813264846801758,0.06939185410737991,-0.9960124492645264,0.15736952424049377,0.09323056042194366,-0.004199574701488018,Normal,Normal
145129126138,9.710372924804688,0.15074782073497772,-1.1180464029312134,0.15003935992717743,0.1408766508102417,-0.0023670331574976444,Normal,Normal
145129128573,9.585947036743164,0.24167509377002716,-1.3980066776275635,0.13171394169330597,0.17264071106910706,7.635590736754239e-05,Normal,Normal
145129131008,9.38734245300293,0.28504499793052673,-1.750050663948059,0.12316207587718964,0.17325155436992645,0.0019088976550847292,Normal,Normal
145129133443,9.147761344909668,0.28504499793052673,-2.152343988418579,0.10300412029027939,0.15003935992717743,0.0037414394319057465,Normal,Normal
145129135878,8.920442581176758,0.2153540402650833,-2.5594229698181152,0.08223531395196915,0.09506310522556305,0.011682453565299511,Normal,Normal
145129138313,8.707481384277344,0.11724831163883209,-2.880061149597168,0.06757497787475586,0.02542651630938053,0.02145601063966751,Normal,Normal
145129140749,8.54447078704834,0.01196411345154047,-3.0667014122009277,0.04558447748422623,-0.06131379306316376,0.034283801913261414,Normal,Normal
145129143184,8.487042427062988,-0.07417750358581543,-3.0643084049224854,0.02970244735479355,-0.13950224220752716,0.049554985016584396,Normal,Normal
145129145619,8.575576782226562,-0.08374879509210587,-2.896811008453369,0.018096350133419037,-0.19944162666797638,0.06116108223795891,Normal,Normal
145129148054,8.7505521774292,-0.02392822690308094,-2.5594229698181152,0.005879404954612255,-0.23303823173046112,0.06665870547294617,Normal,Normal
145129150490,9.059226989746094,0.08135596662759781,-2.1786649227142334,0.005268557462841272,-0.2360924631357193,0.06543701142072678,Normal,Normal
145129152925,9.40169906616211,0.15553347766399384,-1.8577276468276978,0.0022143214009702206,-0.21593450009822845,0.05993938818573952,Normal,Normal
145129155360,9.698409080505371,0.17228323221206665,-1.5658032894134521,0.0064902519807219505,-0.17317520081996918,0.0489441379904747,Normal,Normal
145129157795,9.892526626586914,0.11006984114646912,-1.350150227546692,0.019928891211748123,-0.11567919701337814,0.04161396995186806,Normal,Normal
145129160231,9.940383911132812,-0.0023928226437419653,-1.2687941789627075,0.03336753323674202,-0.05215108394622803,0.03367295488715172,Normal,Normal
145129162666,9.89013385772705,-0.16271193325519562,-1.3094722032546997,0.04497363045811653,0.004046862944960594,0.03306210786104202,Normal,Normal
145129165101,9.798908233642578,-0.3209373354911804,-1.477268934249878,0.05413633957505226,0.05047125369310379,0.039170581847429276,Normal,Normal
145129167536,9.686445236206055,-0.4453641176223755,-1.6878372430801392,0.07246175408363342,0.07857023179531097,0.044668205082416534,Normal,Normal
145129169971,9.509376525878906,-0.4549354016780853,-1.8577276468276978,0.08467870205640793,0.09567394852638245,0.0489441379904747,Normal,Normal
145129172407,9.40169906616211,-0.3735794425010681,-1.970489501953125,0.09628479927778244,0.10178242623806,0.04650074616074562,Normal,Normal
145129174842,9.332307815551758,-0.22492532432079315,-2.0925233364105225,0.10911259055137634,0.09689565002918243,0.036727190017700195,Normal,Normal
145129177277,9.267701148986816,-0.08374879509210587,-2.2097716331481934,0.11949699372053146,0.08284615725278854,0.0165692325681448,Normal,Normal
145129179712,9.243474006652832,0.0023928226437419653,-2.317448616027832,0.12377292662858963,0.05657972767949104,-0.0005344913806766272,Normal,Normal
145129182147,9.19561767578125,-0.03349951654672623,-2.4227328300476074,0.12071868777275085,0.02053973823785782,-0.015805672854185104,Normal,Normal
145129184583,9.164510726928711,-0.11246266216039658,-2.4777679443359375,0.1274380087852478,-0.0130568603053689,-0.02435753494501114,Normal,Normal
145129187018,9.207581520080566,-0.17228323221206665,-2.4538395404815674,0.11949699372053146,-0.05154023692011833,-0.02008160389959812,Normal,Normal
145129189453,9.322735786437988,-0.18903298676013947,-2.3700907230377197,0.1146102175116539,-0.07597412914037704,-0.013973130844533443,Normal,Normal
145129191888,9.497411727905273,-0.12203395366668701,-2.181057929992676,0.10850174725055695,-0.09185615926980972,-0.004810422193259001,Normal,Normal
145129194323,9.657731056213379,-0.02153540402650833,-1.8912272453308105,0.09872818738222122,-0.08452598750591278,0.005573981441557407,Normal,Normal
145129196758,9.731908798217773,0.09571290761232376,-1.5658032894134521,0.0877329409122467,-0.05459447205066681,0.011071606539189816,Normal,Normal
145129199194,9.763015747070312,0.20817556977272034,-1.3357932567596436,0.07734853774309158,-0.005726693198084831,0.015347537584602833,Normal,Normal
145129201629,9.710372924804688,0.2273181527853012,-1.2616157531738281,0.06879667192697525,0.04375193640589714,0.015958385542035103,Normal,Normal
145129204064,9.569196701049805,0.1579262912273407,-1.3573286533355713,0.06329904496669769,0.0877329409122467,0.019623467698693275,Normal,Normal
145129206499,9.463912963867188,-0.007178467698395252,-1.6926229000091553,0.048638712614774704,0.10605835169553757,0.028786176815629005,Normal,Normal
145129208934,9.4088773727417,-0.1866401731967926,-2.1092731952667236,0.043141089379787445,0.09506310522556305,0.04161396995186806,Normal,Normal
145129211370,9.389735221862793,-0.30179476737976074,-2.475374937057495,0.035200074315071106,0.057801421731710434,0.05322006717324257,Normal,Normal
145129213805,9.40169906616211,-0.3448655605316162,-2.6886353492736816,0.028480753302574158,0.0064902519807219505,0.061771929264068604,Normal,Normal
145129216240,9.442377090454102,-0.31375887989997864,-2.738884687423706,0.03092414326965809,-0.05215108394622803,0.061771929264068604,Normal,Normal
145129218675,9.47348403930664,-0.20338992774486542,-2.6168506145477295,0.023593975231051445,-0.0942995473742485,0.052609220147132874,Normal,Normal
145129221110,9.461520195007324,-0.11964113265275955,-2.3676979541778564,0.02053973823785782,-0.12239851802587509,0.035505495965480804,Normal,Normal
145129223546,9.418449401855469,-0.1052841991186142,-2.032702922821045,0.02970244735479355,-0.11018157750368118,0.015347537584602833,Normal,Normal
145129225981,9.36341381072998,-0.14356936514377594,-1.721336841583252,0.02664821222424507,-0.08513683825731277,-0.005421269219368696,Normal,Normal
145129228416,9.361021041870117,-0.22492532432079315,-1.5275181531906128,0.043141089379787445,-0.044820915907621384,-0.018249060958623886,Normal,Normal
145129230851,9.399306297302246,-0.3520440459251404,-1.4653047323226929,0.05169294774532318,-0.0032833039294928312,-0.022524992004036903,Normal,Normal
145129233286,9.514162063598633,-0.4453641176223755,-1.532303810119629,0.06757497787475586,0.02420482225716114,-0.024968381971120834,Normal,Normal
145129235721,9.6433744430542,-0.4453641176223755,-1.6926229000091553,0.07673768699169159,0.03703261539340019,-0.02008160389959812,Normal,Normal
145129238157,9.803693771362305,-0.37597227096557617,-1.86729896068573,0.08956547826528549,0.03336753323674202,-0.013973130844533443,Normal,Normal
145129240592,9.916455268859863,-0.2994019389152527,-2.0374884605407715,0.09933903813362122,0.019318044185638428,-0.00908635277301073,Normal,Normal
145129243027,9.9140625,-0.2153540402650833,-2.1260228157043457,0.11094513535499573,-0.00022906772210262716,-0.00908635277301073,Normal,Normal
145129245462,9.74387264251709,-0.18903298676013947,-2.1571295261383057,0.11705360561609268,-0.016721943393349648,-0.006642963737249374,Normal,Normal
145129247897,9.506983757019043,-0.20817556977272034,-2.135594129562378,0.11216682940721512,-0.016721943393349648,-0.008475505746901035,Normal,Normal
145129250333,9.310771942138672,-0.2512463629245758,-2.14516544342041,0.1139993667602539,-0.01122431829571724,-0.008475505746901035,Normal,Normal
145129252768,9.174081802368164,-0.3281157910823822,-2.2121646404266357,0.11155597865581512,-0.0008399150101467967,-0.0029778804164379835,Normal,Normal
145129255203,9.176474571228027,-0.38315072655677795,-2.334198474884033,0.09994988143444061,0.0034360159188508987,-0.0029778804164379835,Normal,Normal
145129257638,9.301200866699219,-0.37597227096557617,-2.465803623199463,0.09078717231750488,0.004046862944960594,-0.0011453386396169662,Normal,Normal
145129260073,9.490233421325684,-0.31375887989997864,-2.533101797103882,0.07918107509613037,-0.0051158457063138485,-0.0035887276753783226,Normal,Normal
145129262509,9.674481391906738,-0.20578274130821228,-2.4945175647735596,0.06146650388836861,-0.0130568603053689,-0.010918894782662392,Normal,Normal
145129264944,9.854242324829102,-0.11485548317432404,-2.389233350753784,0.05413633957505226,-0.015500249341130257,-0.020692450925707817,Normal,Normal
145129267379,9.930811882019043,-0.07417750358581543,-2.2121646404266357,0.04680617153644562,-0.01122431829571724,-0.03229855000972748,Normal,Normal
145129269814,9.835099220275879,-0.0933200865983963,-1.9366908073425293,0.03092414326965809,0.007711946498602629,-0.03962871432304382,Normal,Normal
145129272249,9.672088623046875,-0.15074782073497772,-1.6686947345733643,0.028480753302574158,0.041919391602277756,-0.04023956134915352,Normal,Normal
145129274684,9.566803932189941,-0.22013968229293823,-1.477268934249878,0.022372281178832054,0.07857023179531097,-0.03779617324471474,Normal,Normal
145129277119,9.528518676757812,-0.25363919138908386,-1.4318052530288696,0.02053973823785782,0.10911259055137634,-0.03290939703583717,Normal,Normal
145129279555,9.576375007629395,-0.2560320198535919,-1.4964114427566528,0.02176143415272236,0.12071868777275085,-0.021303297951817513,Normal,Normal
145129281990,9.688838005065918,-0.22971096634864807,-1.6495521068572998,0.030313294380903244,0.11277767270803452,-0.015194825828075409,Normal,Normal
145129284425,9.803693771362305,-0.1579262912273407,-1.7979071140289307,0.031534988433122635,0.08284615725278854,-0.011529741808772087,Normal,Normal
145129286860,9.894919395446777,-0.07178468257188797,-1.9247267246246338,0.04680617153644562,0.043141089379787445,-0.008475505746901035,Normal,Normal
145129289295,9.894919395446777,-0.03349951654672623,-1.9752750396728516,0.060244809836149216,0.0009926267666742206,-0.010308047756552696,Normal,Normal
145129291731,9.798908233642578,-0.05024927482008934,-1.994417667388916,0.06940752267837524,-0.0423775278031826,-0.015805672854185104,Normal,Normal
145129294166,9.698409080505371,-0.12442677468061447,-1.9510477781295776,0.07734853774309158,-0.07230904698371887,-0.018249060958623886,Normal,Normal
145129296601,9.557232856750488,-0.2225325107574463,-1.8864415884017944,0.08223531395196915,-0.08635853230953217,-0.01885990984737873,Normal,Normal
145129299036,9.478269577026367,-0.3209373354911804,-1.8409779071807861,0.08712209016084671,-0.08513683825731277,-0.0164165198802948,Normal,Normal
145129301471,9.552447319030762,-0.3568296730518341,-1.903191328048706,0.09200886636972427,-0.07963921129703522,-0.013362283818423748,Normal,Normal
145129303907,9.662516593933105,-0.33529427647590637,-1.9558334350585938,0.09139802306890488,-0.07047650218009949,-0.015194825828075409,Normal,Normal
145129306342,9.844670295715332,-0.2727817893028259,-2.0398812294006348,0.09200886636972427,-0.060092099010944366,-0.0231358390301466,Normal,Normal
145129308777,10.0073823928833,-0.14835500717163086,-2.11405873298645,0.09139802306890488,-0.047264307737350464,-0.03474193811416626,Normal,Normal
145129311212,10.115059852600098,-0.035892341285943985,-2.1714866161346436,0.08528954535722733,-0.03871244564652443,-0.04512634128332138,Normal,Normal
145129313647,10.115059852600098,-0.004785645287483931,-2.17627215385437,0.08223531395196915,-0.023441264405846596,-0.05734328553080559,Normal,Normal
145129316082,10.016953468322754,-0.03349951654672623,-2.1619153022766113,0.08284615725278854,-0.0032833039294928312,-0.06467345356941223,Normal,Normal
145129318518,9.823135375976562,-0.0933200865983963,-2.1068804264068604,0.07429429888725281,0.018707197159528732,-0.06528430432081223,Normal,Normal
145129320953,9.645767211914062,-0.10767702013254166,-2.0518453121185303,0.0626882016658783,0.040697697550058365,-0.06039752438664436,Normal,Normal
145129323388,9.499805450439453,-0.11246266216039658,-2.0279171466827393,0.06390989571809769,0.06635328382253647,-0.054899897426366806,Normal,Normal
145129325823,9.463912963867188,-0.05742774158716202,-2.0231316089630127,0.05535803362727165,0.08467870205640793,-0.04512634128332138,Normal,Normal
145129328258,9.52612590789795,0.035892341285943985,-2.063809633255005,0.053525492548942566,0.09017632901668549,-0.036574479192495346,Normal,Normal
145129330694,9.588339805603027,0.10767702013254166,-2.104487419128418,0.057801421731710434,0.08651123940944672,-0.030466007068753242,Normal,Normal
145129333129,9.664909362792969,0.1339980661869049,-2.169093608856201,0.051082100719213486,0.06696412712335587,-0.024968381971120834,Normal,Normal
145129335564,9.72951602935791,0.10289137065410614,-2.181057929992676,0.05474718660116196,0.044362783432006836,-0.01763821393251419,Normal,Normal
145129337999,9.734301567077637,0.031106693670153618,-2.1020946502685547,0.05291464552283287,0.019318044185638428,-0.009697199799120426,Normal,Normal
145129340434,9.746265411376953,-0.031106693670153618,-1.9992033243179321,0.05047125369310379,0.007101099472492933,-0.0011453386396169662,Normal,Normal
145129342870,9.782157897949219,-0.07178468257188797,-1.86729896068573,0.053525492548942566,0.0009926267666742206,0.0067956759594380856,Normal,Normal
145129345305,9.868598937988281,-0.04546362906694412,-1.7356936931610107,0.05291464552283287,0.0034360159188508987,0.00862821750342846,Normal,Normal
145129347740,9.937990188598633,0.004785645287483931,-1.6160526275634766,0.04741701856255531,0.01382041908800602,0.0025197449140250683,Normal,Normal
145129350175,10.048060417175293,0.04307080805301666,-1.6136597394943237,0.05047125369310379,0.02298312820494175,-0.00786465872079134,Normal,Normal
145129352610,10.129416465759277,0.05503492057323456,-1.6806588172912598,0.05413633957505226,0.029091600328683853,-0.019470756873488426,Normal,Normal
145129355046,10.172487258911133,0.040677983313798904,-1.812264084815979,0.05535803362727165,0.024815669283270836,-0.02802261710166931,Normal,Normal
145129357481,10.13180923461914,0.0,-1.9079769849777222,0.060244809836149216,0.013209572061896324,-0.03962871432304382,Normal,Normal
145129359916,10.02173900604248,-0.007178467698395252,-1.9606190919876099,0.05841226875782013,0.004046862944960594,-0.04634803533554077,Normal,Normal
145129362351,9.887741088867188,0.016749758273363113,-1.994417667388916,0.06635328382253647,-0.009391776286065578,-0.050013117492198944,Normal,Normal
145129364786,9.779765129089355,0.019142581149935722,-1.9992033243179321,0.07185091078281403,-0.014278554357588291,-0.05306735634803772,Normal,Normal
145129367222,9.700801849365234,0.05742774158716202,-1.9776679277420044,0.0761268362402916,-0.025273805484175682,-0.052456509321928024,Normal,Normal
145129369657,9.650552749633789,0.12442677468061447,-1.9606190919876099,0.07857023179531097,-0.02283041551709175,-0.050013117492198944,Normal,Normal
145129372092,9.59073257446289,0.16510476171970367,-1.9438693523406982,0.09200886636972427,-0.02160872146487236,-0.04940227046608925,Normal,Normal
145129374527,9.578767776489258,0.19621145725250244,-1.9558334350585938,0.09506310522556305,-0.018554486334323883,-0.044515494257211685,Normal,Normal
145129376962,9.664909362792969,0.18424734473228455,-2.0446670055389404,0.09200886636972427,-0.017332790419459343,-0.03779617324471474,Normal,Normal
145129379398,9.748658180236816,0.15314064919948578,-2.1332013607025146,0.1023932695388794,-0.023441264405846596,-0.024968381971120834,Normal,Normal
145129381833,9.770194053649902,0.12203395366668701,-2.166700839996338,0.09445225447416306,-0.022219568490982056,-0.013362283818423748,Normal,Normal
145129384268,9.782157897949219,0.10049854964017868,-2.1403799057006836,0.09567394852638245,-0.017332790419459343,-0.0011453386396169662,Normal,Normal
145129386703,9.810872077941895,0.11246266216039658,-2.0853450298309326,0.0877329409122467,-0.008170082233846188,0.0067956759594380856,Normal,Normal
145129389138,9.806086540222168,0.17946170270442963,-2.011167526245117,0.07673768699169159,0.015652960166335106,0.009849912486970425,Normal,Normal
145129391574,9.880562782287598,0.24646073579788208,-1.9872392416000366,0.07001836597919464,0.041919391602277756,0.0067956759594380856,Normal,Normal
145129394009,9.926026344299316,0.2799602448940277,-1.9992033243179321,0.0626882016658783,0.06146650388836861,-0.0035887276753783226,Normal,Normal
145129396444,9.945169448852539,0.2679961323738098,-2.011167526245117,0.05230379477143288,0.07795938104391098,-0.012751436792314053,Normal,Normal
145129398879,9.937990188598633,0.22971096634864807,-2.066202402114868,0.049860406666994095,0.07979192584753036,-0.021303297951817513,Normal,Normal
145129401314,9.909276962280273,0.17706887423992157,-2.1643080711364746,0.04008685052394867,0.07429429888725281,-0.02680092304944992,Normal,Normal
145129403749,9.89970588684082,0.14117653667926788,-2.228914260864258,0.0358109213411808,0.05719057470560074,-0.02680092304944992,Normal,Normal
145129406185,9.796515464782715,0.12203395366668701,-2.17627215385437,0.033978380262851715,0.041919391602277756,-0.027411770075559616,Normal,Normal
145129408620,9.727123260498047,0.0933200865983963,-2.035095691680908,0.03092414326965809,0.02664821222424507,-0.024968381971120834,Normal,Normal
145129411055,9.63619613647461,0.11006984114646912,-1.7859430313110352,0.03336753323674202,0.024815669283270836,-0.021914144977927208,Normal,Normal
145129413490,9.535696983337402,0.17946170270442963,-1.5035899877548218,0.040697697550058365,0.032756682485342026,-0.020692450925707817,Normal,Normal
145129415925,9.48784065246582,0.23210379481315613,-1.3070793151855469,0.04558447748422623,0.05413633957505226,-0.019470756873488426,Normal,Normal
145129418361,9.583553314208984,0.24646073579788208,-1.2783654928207397,0.05657972767949104,0.06757497787475586,-0.017027366906404495,Normal,Normal
145129420796,9.696016311645508,0.22971096634864807,-1.347757339477539,0.06635328382253647,0.07185091078281403,-0.014583977870643139,Normal,Normal
145129423231,9.825528144836426,0.2273181527853012,-1.4676976203918457,0.07307260483503342,0.06696412712335587,-0.010918894782662392,Normal,Normal
145129425666,9.949954986572266,0.2273181527853012,-1.6256239414215088,0.08162446320056915,0.044362783432006836,-0.006642963737249374,Normal,Normal
145129428101,10.050453186035156,0.2560320198535919,-1.7715860605239868,0.0877329409122467,0.01626380905508995,-0.006032116711139679,Normal,Normal
145129430537,10.067203521728516,0.28983065485954285,-1.8601205348968506,0.09200886636972427,-0.015500249341130257,-0.008475505746901035,Normal,Normal
145129432972,10.043274879455566,0.2994019389152527,-1.9319051504135132,0.09933903813362122,-0.041766680777072906,-0.009697199799120426,Normal,Normal
145129435408,9.973882675170898,0.29700911045074463,-1.9896320104599,0.1005607321858406,-0.06314633786678314,-0.010308047756552696,Normal,Normal
145129437843,9.859027862548828,0.2727817893028259,-2.0231316089630127,0.10178242623806,-0.07353074103593826,-0.014583977870643139,Normal,Normal
145129440278,9.76062297821045,0.2273181527853012,-2.0829520225524902,0.09689565002918243,-0.07780666649341583,-0.013362283818423748,Normal,Normal
145129442713,9.676874160766602,0.15074782073497772,-2.149951219558716,0.09200886636972427,-0.07719582319259644,-0.013362283818423748,Normal,Normal
145129445148,9.717552185058594,0.11006984114646912,-2.276770830154419,0.08162446320056915,-0.06742226332426071,-0.010918894782662392,Normal,Normal
145129447584,9.808479309082031,0.11485548317432404,-2.389233350753784,0.07734853774309158,-0.0692548081278801,-0.00908635277301073,Normal,Normal
145129450019,9.959526062011719,0.12681959569454193,-2.465803623199463,0.06574243307113647,-0.06253548711538315,-0.00786465872079134,Normal,Normal
145129452454,10.074381828308105,0.17946170270442963,-2.449054002761841,0.06146650388836861,-0.06070294603705406,-0.00786465872079134,Normal,Normal
145129454889,10.081560134887695,0.2727817893028259,-2.2815563678741455,0.05230379477143288,-0.03871244564652443,-0.012751436792314053,Normal,Normal
145129457324,10.048060417175293,0.37118661403656006,-2.063809633255005,0.044362783432006836,-0.008780929259955883,-0.019470756873488426,Normal,Normal
145129459760,9.969097137451172,0.4334000051021576,-1.8625133037567139,0.04558447748422623,0.03458922728896141,-0.02924431301653385,Normal,Normal
145129462195,9.791728973388672,0.41904306411743164,-1.6758731603622437,0.041919391602277756,0.0877329409122467,-0.03352024406194687,Normal,Normal
145129464630,9.700801849365234,0.37118661403656006,-1.6304094791412354,0.041919391602277756,0.13171394169330597,-0.03718532621860504,Normal,Normal
145129467065,9.640981674194336,0.33050861954689026,-1.690230131149292,0.048638712614774704,0.15798036754131317,-0.03229855000972748,Normal,Normal
145129469500,9.595518112182617,0.3041875660419464,-1.7787644863128662,0.049860406666994095,0.16286714375019073,-0.024968381971120834,Normal,Normal
145129471935,9.552447319030762,0.30179476737976074,-1.8385851383209229,0.0492495596408844,0.15187190473079681,-0.014583977870643139,Normal,Normal
145129474371,9.576375007629395,0.31854450702667236,-1.9247267246246338,0.05841226875782013,0.1286597102880478,-0.007253811229020357,Normal,Normal
145129476806,9.585947036743164,0.39511483907699585,-1.9438693523406982,0.06757497787475586,0.09567394852638245,-0.0005344913806766272,Normal,Normal
145129479241,9.631410598754883,0.45254257321357727,-1.9438693523406982,0.06818582862615585,0.05535803362727165,0.004352286923676729,Normal,Normal
145129481676,9.662516593933105,0.49322056770324707,-1.9055840969085693,0.07246175408363342,0.02053973823785782,0.005573981441557407,Normal,Normal
145129484111,9.669695854187012,0.48364928364753723,-1.8649061918258667,0.08040276914834976,-0.013667707331478596,0.004963133949786425,Normal,Normal
145129486547,9.710372924804688,0.41904306411743164,-1.8768702745437622,0.08345700800418854,-0.038101598620414734,0.005573981441557407,Normal,Normal
145129488982,9.734301567077637,0.3161516785621643,-1.8888343572616577,0.08162446320056915,-0.05825955793261528,0.008017370477318764,Normal,Normal
145129491417,9.74387264251709,0.18424734473228455,-1.8816559314727783,0.07857023179531097,-0.0680331140756607,0.012904148548841476,Normal,Normal
145129493852,9.763015747070312,0.07657032459974289,-1.8696918487548828,0.07857023179531097,-0.0686439573764801,0.01901262067258358,Normal,Normal
145129496287,9.75105094909668,0.02392822690308094,-1.83619225025177,0.06879667192697525,-0.06192464008927345,0.022677704691886902,Normal,Normal
145129498723,9.765408515930176,-0.004785645287483931,-1.776371717453003,0.06452073901891708,-0.039323292672634125,0.023899398744106293,Normal,Normal
145129501158,9.796515464782715,0.04307080805301666,-1.7620147466659546,0.057801421731710434,-0.010613471269607544,0.01901262067258358,Normal,Normal
145129503593,9.863813400268555,0.1339980661869049,-1.7620147466659546,0.051082100719213486,0.018096350133419037,0.006184828467667103,Normal,Normal
145129506028,9.916455268859863,0.23449662327766418,-1.7907286882400513,0.04619532451033592,0.04497363045811653,-0.008475505746901035,Normal,Normal
145129508463,9.947562217712402,0.3329014480113983,-1.843370795249939,0.04680617153644562,0.05657972767949104,-0.02802261710166931,Normal,Normal
145129510898,9.995418548583984,0.38793638348579407,-1.9390836954116821,0.04008685052394867,0.06635328382253647,-0.04818057641386986,Normal,Normal
145129513334,10.009775161743164,0.41904306411743164,-2.0303099155426025,0.04619532451033592,0.05047125369310379,-0.06039752438664436,Normal,Normal
145129515769,10.000204086303711,0.42382872104644775,-2.121237277984619,0.05535803362727165,0.02970244735479355,-0.06650599837303162,Normal,Normal
145129518204,9.969097137451172,0.4166502356529236,-2.1475582122802734,0.05719057470560074,0.0022143214009702206,-0.06467345356941223,Normal,Normal
145129520639,9.887741088867188,0.39511483907699585,-2.0685951709747314,0.07246175408363342,-0.027717193588614464,-0.054899897426366806,Normal,Normal
145129523074,9.727123260498047,0.37836506962776184,-1.9055840969085693,0.07368344813585281,-0.0423775278031826,-0.03779617324471474,Normal,Normal
145129525510,9.528518676757812,0.35443684458732605,-1.7021942138671875,0.08101361989974976,-0.03687990456819534,-0.01885990984737873,Normal,Normal
145129527945,9.416056632995605,0.33529427647590637,-1.5442678928375244,0.09323056042194366,-0.02038702741265297,0.0019088976550847292,Normal,Normal
145129530380,9.406484603881836,0.3400799036026001,-1.5466607809066772,0.09689565002918243,0.005879404954612255,0.02023431472480297,Normal,Normal
145129532815,9.46630573272705,0.31854450702667236,-1.6447664499282837,0.09078717231750488,0.024815669283270836,0.03733803704380989,Normal,Normal
145129535250,9.516554832458496,0.30658039450645447,-1.7668004035949707,0.09628479927778244,0.04497363045811653,0.04405735805630684,Normal,Normal
145129537686,9.621838569641113,0.31854450702667236,-1.9558334350585938,0.08101361989974976,0.0492495596408844,0.04527905210852623,Normal,Normal
145129540121,9.784550666809082,0.3329014480113983,-2.1643080711364746,0.08284615725278854,0.04680617153644562,0.036727190017700195,Normal,Normal
145129542556,9.882955551147461,0.3281157910823822,-2.3150558471679688,0.07124006003141403,0.03214583545923233,0.025731941685080528,Normal,Normal
145129544991,9.973882675170898,0.32572299242019653,-2.4131617546081543,0.060244809836149216,0.02298312820494175,0.011682453565299511,Normal,Normal
145129547426,9.993025779724121,0.2632105052471161,-2.39401912689209,0.049860406666994095,-0.0038941511884331703,-0.006642963737249374,Normal,Normal
145129549861,9.904491424560547,0.18903298676013947,-2.2265214920043945,0.03336753323674202,-0.002672456670552492,-0.018249060958623886,Normal,Normal
145129552297,9.552447319030762,0.09571290761232376,-1.831406593322754,0.02420482225716114,0.011377030052244663,-0.03168770298361778,Normal,Normal
145129554732,9.131011009216309,0.035892341285943985,-1.4246268272399902,0.019928891211748123,0.06574243307113647,-0.045737188309431076,Normal,Normal
145129557167,9.358628273010254,0.17228323221206665,-1.4485549926757812,0.015652960166335106,0.10361496359109879,-0.054899897426366806,Normal,Normal
145129559602,9.964311599731445,0.4214358925819397,-1.781157374382019,0.023593975231051445,0.08590039610862732,-0.05673243850469589,Normal,Normal
145129562038,10.050453186035156,0.4405784606933594,-1.8026927709579468,0.02420482225716114,0.049860406666994095,-0.052456509321928024,Normal,Normal
145129564473,9.648159980773926,0.27756741642951965,-1.4724832773208618,0.032756682485342026,0.04375193640589714,-0.043293800204992294,Normal,Normal
145129566908,9.38016414642334,0.2727817893028259,-1.2352946996688843,0.05291464552283287,0.04558447748422623,-0.03352024406194687,Normal,Normal
145129569343,9.423234939575195,0.4262215197086334,-1.252044439315796,0.06390989571809769,0.044362783432006836,-0.01763821393251419,Normal,Normal
145129571778,9.406484603881836,0.4501497745513916,-1.3357932567596436,0.08040276914834976,0.031534988433122635,-0.007253811229020357,Normal,Normal
145129574214,9.430413246154785,0.4166502356529236,-1.4916257858276367,0.0877329409122467,0.02053973823785782,0.0025197449140250683,Normal,Normal
145129576649,9.59073257446289,0.4453641176223755,-1.7476578950881958,0.09445225447416306,-0.01122431829571724,0.011071606539189816,Normal,Normal
145129579084,9.777372360229492,0.44775694608688354,-1.9776679277420044,0.1152210608124733,-0.050929389894008636,0.018401773646473885,Normal,Normal
145129581519,9.847063064575195,0.43100717663764954,-2.1236300468444824,0.11155597865581512,-0.08635853230953217,0.022677704691886902,Normal,Normal
145129583954,9.832706451416016,0.385543555021286,-2.1475582122802734,0.1146102175116539,-0.11079242080450058,0.024510245770215988,Normal,Normal
145129586390,9.679266929626465,0.3616153299808502,-2.049452543258667,0.11338852345943451,-0.10895988345146179,0.022066857665777206,Normal,Normal
145129588825,9.59073257446289,0.31375887989997864,-1.9510477781295776,0.09506310522556305,-0.08269345015287399,0.015958385542035103,Normal,Normal
145129591260,9.523733139038086,0.29700911045074463,-1.8601205348968506,0.09445225447416306,-0.0423775278031826,0.008017370477318764,Normal,Normal
145129593695,9.547661781311035,0.2922234535217285,-1.8505492210388184,0.07918107509613037,-0.0032833039294928312,-0.0005344913806766272,Normal,Normal
145129596130,9.595518112182617,0.28983065485954285,-1.8816559314727783,0.059023115783929825,0.03703261539340019,-0.008475505746901035,Normal,Normal
145129598565,9.75344467163086,0.3161516785621643,-2.025524377822876,0.05169294774532318,0.057801421731710434,-0.017027366906404495,Normal,Normal
145129601001,9.92124080657959,0.39511483907699585,-2.183450698852539,0.03886515647172928,0.06329904496669769,-0.024968381971120834,Normal,Normal
145129603436,9.949954986572266,0.4788636267185211,-2.20737886428833,0.033978380262851715,0.05291464552283287,-0.02924431301653385,Normal,Normal
145129605871,9.882955551147461,0.5123631358146667,-2.1260228157043457,0.027869906276464462,0.048638712614774704,-0.034131091088056564,Normal,Normal
145129608306,9.703194618225098,0.5315057039260864,-1.9558334350585938,0.029091600328683853,0.043141089379787445,-0.03352024406194687,Normal,Normal
145129610741,9.423234939575195,0.5051847100257874,-1.7428722381591797,0.031534988433122635,0.04741701856255531,-0.026190076023340225,Normal,Normal
145129613177,9.056833267211914,0.4166502356529236,-1.4988043308258057,0.03458922728896141,0.06329904496669769,-0.018249060958623886,Normal,Normal
145129615612,8.803194046020508,0.3329014480113983,-1.3764712810516357,0.04130854457616806,0.0889546349644661,-0.006642963737249374,Normal,Normal
145129618047,8.958727836608887,0.3209373354911804,-1.55623197555542,0.05291464552283287,0.09078717231750488,0.009239064529538155,Normal,Normal
145129620482,9.250652313232422,0.3448655605316162,-1.8098711967468262,0.057801421731710434,0.05963396281003952,0.027564482763409615,Normal,Normal
145129622917,9.38016414642334,0.3089732229709625,-1.9199410676956177,0.07062921673059464,0.023593975231051445,0.04222481697797775,Normal,Normal
145129625353,9.609874725341797,0.3089732229709625,-2.0470597743988037,0.0749051421880722,-0.02283041551709175,0.05016583204269409,Normal,Normal
145129627788,9.92124080657959,0.3975076675415039,-2.135594129562378,0.07979192584753036,-0.06620056927204132,0.05322006717324257,Normal,Normal
145129630223,9.990633010864258,0.44297128915786743,-2.035095691680908,0.09323056042194366,-0.10285140573978424,0.048333290964365005,Normal,Normal
145129632658,9.863813400268555,0.385543555021286,-1.7835501432418823,0.08345700800418854,-0.0955212414264679,0.034283801913261414,Normal,Normal
145129635093,9.741479873657227,0.3209373354911804,-1.5514464378356934,0.08712209016084671,-0.06986565887928009,0.024510245770215988,Normal,Normal
145129637529,9.609874725341797,0.24885354936122894,-1.4222339391708374,0.09261971712112427,-0.02710634656250477,0.014736690558493137,Normal,Normal
145129639964,9.435198783874512,0.11006984114646912,-1.3597214221954346,0.07001836597919464,0.02298312820494175,0.0067956759594380856,Normal,Normal
145129642399,9.301200866699219,0.0023928226437419653,-1.415055513381958,0.08345700800418854,0.07673768699169159,0.0037414394319057465,Normal,Normal
145129644834,9.416056632995605,-0.0023928226437419653,-1.721336841583252,0.0749051421880722,0.10117157548666,7.635590736754239e-05,Normal,Normal
145129647269,9.550054550170898,0.062213387340307236,-2.0470597743988037,0.06146650388836861,0.09994988143444061,-0.0005344913806766272,Normal,Normal
145129649705,9.62901782989502,0.15074782073497772,-2.245664119720459,0.07001836597919464,0.07001836597919464,-0.00786465872079134,Normal,Normal
145129652140,9.638588905334473,0.24646073579788208,-2.3437697887420654,0.05474718660116196,0.040697697550058365,-0.013973130844533443,Normal,Normal
145129654575,9.667302131652832,0.34725838899612427,-2.3844478130340576,0.060244809836149216,-0.00022906772210262716,-0.0231358390301466,Normal,Normal
145129657010,9.61944580078125,0.40707895159721375,-2.310270309448242,0.06329904496669769,-0.0423775278031826,-0.023746687918901443,Normal,Normal
145129659445,9.461520195007324,0.38315072655677795,-2.1164517402648926,0.053525492548942566,-0.06558972597122192,-0.022524992004036903,Normal,Normal
145129661881,9.219545364379883,0.3400799036026001,-1.8146568536758423,0.0749051421880722,-0.06986565887928009,-0.013973130844533443,Normal,Normal
145129664316,9.008976936340332,0.2922234535217285,-1.5418751239776611,0.0755159929394722,-0.04665346071124077,7.635590736754239e-05,Normal,Normal
145129666751,9.040083885192871,0.22013968229293823,-1.4796617031097412,0.08467870205640793,-0.02038702741265297,0.015347537584602833,Normal,Normal
145129669186,9.3490571975708,0.19621145725250244,-1.6615161895751953,0.09261971712112427,-0.0051158457063138485,0.02817532978951931,Normal,Normal
145129671622,9.705587387084961,0.2826521694660187,-1.8696918487548828,0.08528954535722733,-0.005726693198084831,0.039170581847429276,Normal,Normal
145129674057,9.835099220275879,0.33050861954689026,-1.8912272453308105,0.10117157548666,-0.007559234742075205,0.04161396995186806,Normal,Normal
145129676492,9.827920913696289,0.28504499793052673,-1.8457635641098022,0.09506310522556305,0.0028251686599105597,0.04283566400408745,Normal,Normal
145129678927,9.779765129089355,0.24406790733337402,-1.807478427886963,0.09139802306890488,0.02542651630938053,0.037948887795209885,Normal,Normal
145129681362,9.851848602294922,0.20338992774486542,-1.8912272453308105,0.09445225447416306,0.03458922728896141,0.031229566782712936,Normal,Normal
145129683798,9.696016311645508,0.08374879509210587,-1.86729896068573,0.07857023179531097,0.048638712614774704,0.025731941685080528,Normal,Normal
145129686233,9.47348403930664,-0.02153540402650833,-1.831406593322754,0.07918107509613037,0.07368344813585281,0.019623467698693275,Normal,Normal
145129688668,9.559625625610352,0.040677983313798904,-1.9920248985290527,0.07429429888725281,0.07918107509613037,0.01779092662036419,Normal,Normal
145129691103,9.624231338500977,0.13878370821475983,-2.1164517402648926,0.05719057470560074,0.06757497787475586,0.015347537584602833,Normal,Normal
145129693538,9.609874725341797,0.09810572862625122,-2.152343988418579,0.06085565686225891,0.05413633957505226,0.011682453565299511,Normal,Normal
145129695974,9.49501895904541,0.08135596662759781,-2.094916343688965,0.05169294774532318,0.035200074315071106,0.014125842601060867,Normal,Normal
145129698409,9.451948165893555,0.12681959569454193,-1.9920248985290527,0.044362783432006836,0.029091600328683853,0.015958385542035103,Normal,Normal
145129700844,9.358628273010254,0.09810572862625122,-1.872084617614746,0.04619532451033592,0.01748550310730934,0.022677704691886902,Normal,Normal
145129703279,9.253045082092285,0.05742774158716202,-1.7596219778060913,0.040697697550058365,0.02298312820494175,0.025731941685080528,Normal,Normal
145129705714,9.327521324157715,0.08135596662759781,-1.7333009243011475,0.0358109213411808,0.01626380905508995,0.031229566782712936,Normal,Normal
145129708150,9.492626190185547,0.14356936514377594,-1.7883358001708984,0.0364217683672905,0.010155336000025272,0.034283801913261414,Normal,Normal
145129710585,9.672088623046875,0.11006984114646912,-1.896012783050537,0.03825430944561958,-0.008780929259955883,0.0361163429915905,Normal,Normal
145129713020,9.801301002502441,0.10289137065410614,-1.9657038450241089,0.0492495596408844,-0.02832804247736931,0.03855973482131958,Normal,Normal
145129715455,9.842277526855469,0.07178468257188797,-1.9606190919876099,0.0492495596408844,-0.044820915907621384,0.040392275899648666,Normal,Normal
145129717890,9.810872077941895,-0.038285162299871445,-1.8936200141906738,0.053525492548942566,-0.05459447205066681,0.04283566400408745,Normal,Normal
145129720325,9.698409080505371,-0.15553347766399384,-1.7883358001708984,0.05474718660116196,-0.050929389894008636,0.045889899134635925,Normal,Normal
145129722761,9.437591552734375,-0.2273181527853012,-1.561017632484436,0.060244809836149216,-0.018554486334323883,0.04772244393825531,Normal,Normal
145129725196,9.339486122131348,-0.24885354936122894,-1.438983678817749,0.05474718660116196,0.02298312820494175,0.045889899134635925,Normal,Normal
145129727631,9.313164710998535,-0.22013968229293823,-1.4581263065338135,0.05535803362727165,0.06757497787475586,0.04100312292575836,Normal,Normal
145129730066,9.358628273010254,-0.16749759018421173,-1.5801602602005005,0.0620773509144783,0.09506310522556305,0.03306210786104202,Normal,Normal
145129732501,9.437591552734375,-0.12681959569454193,-1.77397882938385,0.05719057470560074,0.11094513535499573,0.017180079594254494,Normal,Normal
145129734937,9.566803932189941,-0.11006984114646912,-2.0279171466827393,0.05535803362727165,0.09689565002918243,0.0037414394319057465,Normal,Normal
145129737372,9.72951602935791,-0.09810572862625122,-2.3030917644500732,0.0626882016658783,0.0626882016658783,-0.00786465872079134,Normal,Normal
145129739807,9.830313682556152,-0.15074782073497772,-2.4945175647735596,0.05230379477143288,0.010766183026134968,-0.013973130844533443,Normal,Normal
145129742242,9.758230209350586,-0.20099709928035736,-2.472982168197632,0.05841226875782013,-0.03687990456819534,-0.019470756873488426,Normal,Normal
145129744677,9.640981674194336,-0.22013968229293823,-2.2959132194519043,0.06146650388836861,-0.07353074103593826,-0.02008160389959812,Normal,Normal
145129747113,9.48784065246582,-0.19621145725250244,-2.001596212387085,0.053525492548942566,-0.07536327838897705,-0.017027366906404495,Normal,Normal
145129749548,9.444769859313965,-0.14117653667926788,-1.7548363208770752,0.06085565686225891,-0.06375718116760254,-0.014583977870643139,Normal,Normal
145129751983,9.483055114746094,-0.08135596662759781,-1.6208382844924927,0.05841226875782013,-0.03749075159430504,-0.010308047756552696,Normal,Normal
145129754418,9.509376525878906,-0.040677983313798904,-1.5107684135437012,0.059023115783929825,-0.0038941511884331703,-0.0035887276753783226,Normal,Normal
145129756853,9.538089752197266,-0.016749758273363113,-1.4940186738967896,0.05230379477143288,0.028480753302574158,0.0037414394319057465,Normal,Normal
145129759289,9.578767776489258,-0.031106693670153618,-1.5753746032714844,0.05596888065338135,0.06085565686225891,0.008017370477318764,Normal,Normal
145129761724,9.571589469909668,-0.040677983313798904,-1.7189439535140991,0.05047125369310379,0.07795938104391098,0.015347537584602833,Normal,Normal
145129764159,9.557232856750488,-0.07657032459974289,-1.927119493484497,0.0492495596408844,0.08345700800418854,0.023899398744106293,Normal,Normal
145129766594,9.547661781311035,-0.10049854964017868,-2.14516544342041,0.04253023862838745,0.07246175408363342,0.03061871975660324,Normal,Normal
145129769029,9.478269577026367,-0.13160525262355804,-2.30069899559021,0.028480753302574158,0.05413633957505226,0.03733803704380989,Normal,Normal
145129771465,9.375378608703613,-0.15074782073497772,-2.379662036895752,0.027259059250354767,0.027869906276464462,0.037948887795209885,Normal,Normal
145129773900,9.308379173278809,-0.16749759018421173,-2.4155545234680176,0.014431266114115715,0.010155336000025272,0.036727190017700195,Normal,Normal
145129776335,9.303593635559082,-0.19621145725250244,-2.42512583732605,0.00038177953683771193,-0.007559234742075205,0.035505495965480804,Normal,Normal
145129778770,9.396913528442383,-0.2273181527853012,-2.410768747329712,0.0016034740256145597,-0.02405211143195629,0.03367295488715172,Normal,Normal
145129781205,9.51176929473877,-0.23449662327766418,-2.3270199298858643,-0.014889402315020561,-0.03626905754208565,0.027564482763409615,Normal,Normal
145129783641,9.676874160766602,-0.25363919138908386,-2.197807550430298,-0.02405211143195629,-0.038101598620414734,0.02145601063966751,Normal,Normal
145129786076,9.810872077941895,-0.2512463629245758,-1.9968105554580688,-0.025884652510285378,-0.032603971660137177,0.017180079594254494,Normal,Normal
145129788511,9.887741088867188,-0.18424734473228455,-1.7261223793029785,-0.028938889503479004,-0.008170082233846188,0.009239064529538155,Normal,Normal
145129790946,9.90688419342041,-0.13878370821475983,-1.4676976203918457,-0.03871244564652443,0.027869906276464462,0.0019088976550847292,Normal,Normal
145129793382,9.902098655700684,-0.10767702013254166,-1.3070793151855469,-0.03504735976457596,0.06818582862615585,-0.006642963737249374,Normal,Normal
145129795817,9.887741088867188,-0.08853443711996078,-1.2400803565979004,-0.03382566571235657,0.10483665764331818,-0.013362283818423748,Normal,Normal
145129798252,9.827920913696289,-0.062213387340307236,-1.2065808773040771,-0.02710634656250477,0.13843326270580292,-0.01763821393251419,Normal,Normal
145129800687,9.777372360229492,-0.07178468257188797,-1.2951152324676514,-0.012446013279259205,0.14759597182273865,-0.019470756873488426,Normal,Normal
145129803122,9.755837440490723,-0.08135596662759781,-1.450947880744934,-0.013667707331478596,0.1408766508102417,-0.020692450925707817,Normal,Normal
145129805558,9.672088623046875,-0.06939185410737991,-1.6160526275634766,0.00038177953683771193,0.11216682940721512,-0.018249060958623886,Normal,Normal
145129807993,9.614660263061523,-0.03349951654672623,-1.7620147466659546,0.007101099472492933,0.07124006003141403,-0.014583977870643139,Normal,Normal
145129810428,9.478269577026367,0.009571290574967861,-1.8194425106048584,0.02298312820494175,0.03214583545923233,-0.015194825828075409,Normal,Normal
145129812863,9.358628273010254,0.08853443711996078,-1.7979071140289307,0.03458922728896141,-0.005726693198084831,-0.015805672854185104,Normal,Normal
145129815298,9.310771942138672,0.11246266216039658,-1.7835501432418823,0.03886515647172928,-0.03565821051597595,-0.012751436792314053,Normal,Normal
145129817734,9.272486686706543,0.09810572862625122,-1.750050663948059,0.053525492548942566,-0.057648710906505585,-0.010918894782662392,Normal,Normal
145129820169,9.248259544372559,0.06939185410737991,-1.7021942138671875,0.059023115783929825,-0.07047650218009949,-0.006032116711139679,Normal,Normal
145129822604,9.298808097839355,0.02632104977965355,-1.651944875717163,0.05230379477143288,-0.07108735293149948,7.635590736754239e-05,Normal,Normal
145129825039,9.425627708435059,-0.0023928226437419653,-1.678265929222107,0.05535803362727165,-0.06558972597122192,0.007406522985547781,Normal,Normal
145129827474,9.650552749633789,0.004785645287483931,-1.7668004035949707,0.05657972767949104,-0.05825955793261528,0.012293301522731781,Normal,Normal
145129829909,9.892526626586914,0.05503492057323456,-1.872084617614746,0.041919391602277756,-0.05459447205066681,0.018401773646473885,Normal,Normal
145129832345,10.04566764831543,0.07178468257188797,-1.9414764642715454,0.04008685052394867,-0.048486001789569855,0.017180079594254494,Normal,Normal
145129834780,10.134202003479004,0.06699903309345245,-1.970489501953125,0.019928891211748123,-0.038101598620414734,0.014125842601060867,Normal,Normal
145129837215,10.105487823486328,0.031106693670153618,-1.9630118608474731,0.005879404954612255,-0.01916533336043358,0.01046075951308012,Normal,Normal
145129839650,9.983454704284668,-0.031106693670153618,-1.922333836555481,-0.010613471269607544,0.007101099472492933,0.01046075951308012,Normal,Normal
145129842085,9.818050384521484,-0.1459621787071228,-1.927119493484497,-0.028938889503479004,0.03825430944561958,0.011682453565299511,Normal,Normal
145129844521,9.638588905334473,-0.22971096634864807,-1.9776679277420044,-0.053983625024557114,0.06390989571809769,0.015347537584602833,Normal,Normal
145129846956,9.449555397033691,-0.30658039450645447,-2.0279171466827393,-0.07963921129703522,0.0877329409122467,0.023899398744106293,Normal,Normal
145129849391,9.294022560119629,-0.33050861954689026,-2.0997018814086914,-0.09979717433452606,0.10178242623806,0.02695363573729992,Normal,Normal
145129851826,9.241081237792969,-0.26081767678260803,-2.231307029724121,-0.11812258511781693,0.10544750839471817,0.03245126083493233,Normal,Normal
145129854261,9.289237022399902,-0.12442677468061447,-2.3988046646118164,-0.14133478701114655,0.08590039610862732,0.026342788711190224,Normal,Normal
145129856697,9.48066234588623,0.007178467698395252,-2.597707986831665,-0.16576866805553436,0.05474718660116196,0.01779092662036419,Normal,Normal
145129859132,9.652945518493652,0.14835500717163086,-2.691028118133545,-0.1749313771724701,0.004046862944960594,0.0067956759594380856,Normal,Normal
145129861567,9.827920913696289,0.30658039450645447,-2.6264219284057617,-0.19508934020996094,-0.041766680777072906,-0.006032116711139679,Normal,Normal
145129864002,10.012167930603027,0.43579283356666565,-2.482553482055664,-0.20364120602607727,-0.08880192041397095,-0.0231358390301466,Normal,Normal
145129866437,10.098309516906738,0.4621138870716095,-2.20737886428833,-0.211582213640213,-0.11690089106559753,-0.03718532621860504,Normal,Normal
145129868873,10.05284595489502,0.3735794425010681,-1.8505492210388184,-0.21585814654827118,-0.1211768239736557,-0.03596363216638565,Normal,Normal
145129871308,9.863813400268555,0.22013968229293823,-1.4916257858276367,-0.20241950452327728,-0.1083490327000618,-0.019470756873488426,Normal,Normal
145129873743,9.621838569641113,0.031106693670153618,-1.189831018447876,-0.20608459413051605,-0.07047650218009949,0.0031305921729654074,Normal,Normal
145129876178,9.368199348449707,-0.12203395366668701,-0.9912267923355103,-0.19508934020996094,-0.012446013279259205,0.034283801913261414,Normal,Normal
145129878614,9.214759826660156,-0.15553347766399384,-0.9146564602851868,-0.17554223537445068,0.04619532451033592,0.06849125027656555,Normal,Normal
145129881049,9.296415328979492,-0.11006984114646912,-1.074975609779358,-0.18226155638694763,0.09323056042194366,0.09170344471931458,Normal,Normal
145129883484,9.444769859313965,0.0,-1.350150227546692,-0.1590493619441986,0.11766445636749268,0.10330954194068909,Normal,Normal
145129885919,9.59791088104248,0.0933200865983963,-1.6686947345733643,-0.14988665282726288,0.11583191156387329,0.09964445978403091,Normal,Normal
145129888354,9.71515941619873,0.14356936514377594,-2.0446670055389404,-0.1474432498216629,0.0889546349644661,0.08681666851043701,Normal,Normal
145129890790,9.835099220275879,0.12681959569454193,-2.389233350753784,-0.12667444348335266,0.03825430944561958,0.06421531736850739,Normal,Normal
145129893225,9.873384475708008,0.08614161610603333,-2.5689942836761475,-0.12362021207809448,-0.023441264405846596,0.04100312292575836,Normal,Normal
145129895660,9.868598937988281,0.007178467698395252,-2.566601276397705,-0.11506835371255875,-0.08452598750591278,0.015347537584602833,Normal,Normal
145129898095,9.772586822509766,-0.035892341285943985,-2.372483730316162,-0.09674293547868729,-0.11995512992143631,-0.006642963737249374,Normal,Normal
145129900530,9.660123825073242,-0.08374879509210587,-2.032702922821045,-0.08880192041397095,-0.135226309299469,-0.02557922899723053,Normal,Normal
145129902966,9.538089752197266,-0.11485548317432404,-1.659123420715332,-0.07353074103593826,-0.11690089106559753,-0.03901786729693413,Normal,Normal
145129905401,9.449555397033691,-0.11485548317432404,-1.2687941789627075,-0.05215108394622803,-0.07658497244119644,-0.04512634128332138,Normal,Normal
145129907836,9.432806015014648,-0.07178468257188797,-0.9960124492645264,-0.03443651273846626,-0.014278554357588291,-0.04879142343997955,Normal,Normal
145129910271,9.506983757019043,0.02632104977965355,-0.8715856671333313,-0.02160872146487236,0.044362783432006836,-0.04879142343997955,Normal,Normal
145129912706,9.621838569641113,0.16510476171970367,-0.890728235244751,0.004657710436731577,0.09872818738222122,-0.045737188309431076,Normal,Normal
145129915141,9.755837440490723,0.3113660514354706,-1.072582721710205,0.019318044185638428,0.12988139688968658,-0.0420721061527729,Normal,Normal
145129917576,9.902098655700684,0.4334000051021576,-1.3621143102645874,0.033978380262851715,0.13476817309856415,-0.03901786729693413,Normal,Normal
145129920012,10.002596855163574,0.5578267574310303,-1.6567305326461792,0.04497363045811653,0.11216682940721512,-0.03718532621860504,Normal,Normal
145129922447,9.983454704284668,0.6080760359764099,-1.8840487003326416,0.05596888065338135,0.07918107509613037,-0.02924431301653385,Normal,Normal
145129924882,9.873384475708008,0.5817549824714661,-2.0829520225524902,0.06085565686225891,0.031534988433122635,-0.023746687918901443,Normal,Normal
145129927317,9.672088623046875,0.4740779995918274,-2.1882362365722656,0.06513158977031708,-0.01122431829571724,-0.012140588834881783,Normal,Normal
145129929752,9.361021041870117,0.3161516785621643,-2.1547367572784424,0.053525492548942566,-0.04543176665902138,0.006184828467667103,Normal,Normal
145129932188,9.056833267211914,0.1698904037475586,-2.0279171466827393,0.053525492548942566,-0.05154023692011833,0.023899398744106293,Normal,Normal
145129934623,8.872586250305176,0.05024927482008934,-1.89840567111969,0.03886515647172928,-0.03749075159430504,0.04405735805630684,Normal,Normal
145129937058,8.906085968017578,0.004785645287483931,-1.86729896068573,0.018707197159528732,-0.01916533336043358,0.058717694133520126,Normal,Normal
145129939493,9.05444049835205,0.03349951654672623,-1.8936200141906738,0.011987877078354359,0.00038177953683771193,0.061771929264068604,Normal,Normal
145129941928,9.368199348449707,0.07657032459974289,-1.9680966138839722,-0.006948387715965509,0.014431266114115715,0.05566345527768135,Normal,Normal
145129944364,9.767801284790039,0.19381862878799438,-2.0925233364105225,-0.0130568603053689,0.010155336000025272,0.04222481697797775,Normal,Normal
145129946799,10.186843872070312,0.30658039450645447,-2.2432711124420166,-0.02283041551709175,-0.008780929259955883,0.015958385542035103,Normal,Normal
145129949234,10.495817184448242,0.3807578980922699,-2.3150558471679688,-0.022219568490982056,-0.03993413969874382,-0.012140588834881783,Normal,Normal
145129951669,10.648958206176758,0.37836506962776184,-2.2671995162963867,-0.019776180386543274,-0.0692548081278801,-0.03779617324471474,Normal,Normal
145129954105,10.529316902160645,0.3161516785621643,-2.0207388401031494,-0.005726693198084831,-0.09124530851840973,-0.053678203374147415,Normal,Normal
145129956540,10.194023132324219,0.21296121180057526,-1.6160526275634766,0.0064902519807219505,-0.07902836054563522,-0.06345175951719284,Normal,Normal
145129958975,9.731908798217773,0.1052841991186142,-1.1802598237991333,0.026037365198135376,-0.03626905754208565,-0.05978667363524437,Normal,Normal
145129961410,9.327521324157715,0.02153540402650833,-0.8186444640159607,0.04619532451033592,0.027259059250354767,-0.04634803533554077,Normal,Normal
145129963845,8.97787094116211,0.007178467698395252,-0.610468864440918,0.06757497787475586,0.1023932695388794,-0.02924431301653385,Normal,Normal
145129966281,8.82951545715332,0.03349951654672623,-0.6487540602684021,0.0883437842130661,0.1653105467557907,-0.00786465872079134,Normal,Normal
145129968716,8.872586250305176,0.11006984114646912,-0.9433703422546387,0.11155597865581512,0.2056264579296112,0.007406522985547781,Normal,Normal
145129971151,9.087940216064453,0.2105683982372284,-1.407876968383789,0.12316207587718964,0.19890713691711426,0.02023431472480297,Normal,Normal
145129973586,9.351449966430664,0.2922234535217285,-1.9103697538375854,0.14637427031993866,0.15981291234493256,0.026342788711190224,Normal,Normal
145129976021,9.676874160766602,0.3161516785621643,-2.39401912689209,0.14576342701911926,0.07857023179531097,0.028786176815629005,Normal,Normal
145129978457,9.839884757995605,0.28504499793052673,-2.674278497695923,0.15065020322799683,-0.016111096367239952,0.028786176815629005,Normal,Normal
145129980892,9.875777244567871,0.2225325107574463,-2.674278497695923,0.14332003891468048,-0.0942995473742485,0.028786176815629005,Normal,Normal
145129983327,9.859027862548828,0.20099709928035736,-2.4945175647735596,0.13354648649692535,-0.14499986171722412,0.026342788711190224,Normal,Normal
145129985762,9.859027862548828,0.20338992774486542,-2.183450698852539,0.1146102175116539,-0.16279079020023346,0.0165692325681448,Normal,Normal
145129988197,9.89970588684082,0.23449662327766418,-1.7979071140289307,0.10544750839471817,-0.13950224220752716,0.004963133949786425,Normal,Normal
145129990633,10.244272232055664,0.2922234535217285,-1.4533406496047974,0.09750649333000183,-0.09674293547868729,-0.019470756873488426,Normal,Normal
145129993068,10.194023132324219,0.12203395366668701,-1.197009563446045,0.07918107509613037,-0.03626905754208565,-0.03596363216638565,Normal,Normal
145129995503,9.904491424560547,0.0933200865983963,-0.9960124492645264,0.07673768699169159,0.04130854457616806,-0.04695888236165047,Normal,Normal
145129997938,9.866206169128418,-0.02153540402650833,-1.170688509941101,0.07795938104391098,0.09445225447416306,-0.050013117492198944,Normal,Normal
145130000373,9.825528144836426,-0.1746760457754135,-1.4868401288986206,0.07307260483503342,0.1280488520860672,-0.05184566229581833,Normal,Normal
145130002809,9.686445236206055,-0.0526420995593071,-1.7165511846542358,0.08284615725278854,0.13049224019050598,-0.04940227046608925,Normal,Normal
145130005244,9.674481391906738,0.15553347766399384,-1.9486548900604248,0.09384141117334366,0.10850174725055695,-0.04940227046608925,Normal,Normal
145130007679,9.746265411376953,0.29700911045074463,-2.128415822982788,0.11216682940721512,0.06635328382253647,-0.05184566229581833,Normal,Normal
145130010114,9.700801849365234,0.4549354016780853,-2.0781664848327637,0.13415732979774475,0.013209572061896324,-0.05428905040025711,Normal,Normal
145130012549,9.46630573272705,0.5889334678649902,-1.8553348779678345,0.14637427031993866,-0.02405211143195629,-0.0555107444524765,Normal,Normal
145130014985,9.207581520080566,0.5841478109359741,-1.623231053352356,0.17630578577518463,-0.03565821051597595,-0.053678203374147415,Normal,Normal
145130017420,9.052047729492188,0.5099703073501587,-1.4724832773208618,0.19585290551185608,-0.03626905754208565,-0.045737188309431076,Normal,Normal
145130019855,9.025727272033691,0.45254257321357727,-1.450947880744934,0.2062373012304306,-0.025884652510285378,-0.02802261710166931,Normal,Normal
145130022290,9.162117958068848,0.36640095710754395,-1.5586248636245728,0.22211933135986328,-0.025273805484175682,-0.005421269219368696,Normal,Normal
145130024725,9.404091835021973,0.3400799036026001,-1.7356936931610107,0.2202867865562439,-0.023441264405846596,0.019623467698693275,Normal,Normal
145130027161,9.664909362792969,0.3161516785621643,-1.92951238155365,0.2208976447582245,-0.028938889503479004,0.04222481697797775,Normal,Normal
145130029596,9.966704368591309,0.08614161610603333,-2.2193429470062256,0.20806984603405,-0.04543176665902138,0.05993938818573952,Normal,Normal
145130032031,9.882955551147461,-0.07896314561367035,-2.159522533416748,0.17325155436992645,-0.025273805484175682,0.06665870547294617,Normal,Normal
145130034466,10.339984893798828,0.1579262912273407,-2.3676979541778564,0.1408766508102417,-0.014278554357588291,0.05932854115962982,Normal,Normal
145130036901,10.792527198791504,0.4405784606933594,-2.5857439041137695,0.10911259055137634,-0.025273805484175682,0.04283566400408745,Normal,Normal
