time_usec,acc_x,acc_y,acc_z,rot_x,rot_y,rot_z,label,type
145273574912,9.617053031921387,0.031106693670153618,-2.073380708694458,0.019776180386543274,-0.033443886786699295,0.006948387715965509,Normal,Normal
145273577347,9.696016311645508,0.009571290574967861,-2.073380708694458,0.019776180386543274,-0.06032116711139679,0.013667707331478596,Normal,Normal
145273579782,9.7366943359375,0.004785645287483931,-1.9800606966018677,0.010002624243497849,-0.07864658534526825,0.01794363744556904,Normal,Normal
145273582217,9.837491989135742,0.01196411345154047,-1.8529419898986816,0.0032833039294928312,-0.07009471952915192,0.019776180386543274,Normal,Normal
145273584653,9.882955551147461,0.0,-1.6878372430801392,-0.005879404954612255,-0.050547610968351364,0.02038702741265297,Normal,Normal
145273587088,9.875777244567871,0.01196411345154047,-1.5227324962615967,-0.015652960166335106,-0.01511846948415041,0.016721943393349648,Normal,Normal
145273589523,9.849455833435059,0.031106693670153618,-1.3932210206985474,-0.015652960166335106,0.023364907130599022,0.010002624243497849,Normal,Normal
145273591959,9.803693771362305,0.035892341285943985,-1.3621143102645874,-0.015652960166335106,0.05635065957903862,0.008170082233846188,Normal,Normal
145273594394,9.739087104797363,0.02153540402650833,-1.3956137895584106,-0.01748550310730934,0.07773031294345856,0.0032833039294928312,Normal,Normal
145273596829,9.648159980773926,-0.02153540402650833,-1.4868401288986206,-0.008322793990373611,0.08322793990373611,0.00022906772210262716,Normal,Normal
145273599264,9.562018394470215,-0.059820566326379776,-1.6064813137054443,-0.008322793990373611,0.0716218426823616,-0.0022143214009702206,Normal,Normal
145273601699,9.497411727905273,-0.08614161610603333,-1.7309080362319946,-0.004657710436731577,0.04963133856654167,-0.004657710436731577,Normal,Normal
145273604134,9.514162063598633,-0.07417750358581543,-1.8577276468276978,-0.0009926267666742206,0.012980503961443901,-0.00038177953683771193,Normal,Normal
145273606570,9.569196701049805,-0.06939185410737991,-1.9486548900604248,0.006337540224194527,-0.026724567636847496,0.00022906772210262716,Normal,Normal
145273609005,9.63619613647461,-0.040677983313798904,-1.9657038450241089,0.0032833039294928312,-0.06459710001945496,-0.00038177953683771193,Normal,Normal
145273611440,9.748658180236816,-0.004785645287483931,-1.9175482988357544,0.010002624243497849,-0.08964183181524277,-0.0022143214009702206,Normal,Normal
145273613875,9.839884757995605,0.02392822690308094,-1.8337994813919067,0.013667707331478596,-0.0975828468799591,-0.004046862944960594,Normal,Normal
145273616310,9.892526626586914,0.009571290574967861,-1.7404793500900269,0.011835165321826935,-0.08658760040998459,-0.0028251686599105597,Normal,Normal
145273618746,9.90688419342041,-0.014356935396790504,-1.6064813137054443,0.013667707331478596,-0.06398624926805496,-0.005879404954612255,Normal,Normal
145273621181,9.859027862548828,-0.01196411345154047,-1.477268934249878,0.0051158457063138485,-0.021837789565324783,-0.0016034740256145597,Normal,Normal
145273623616,9.782157897949219,0.014356935396790504,-1.407876968383789,0.0038941511884331703,0.02641914412379265,-0.0016034740256145597,Normal,Normal
145273626051,9.719944953918457,0.014356935396790504,-1.3980066776275635,0.006337540224194527,0.07040014863014221,0.00022906772210262716,Normal,Normal
145273628486,9.62901782989502,0.03349951654672623,-1.4557334184646606,0.0008399150101467967,0.0978882759809494,-0.00038177953683771193,Normal,Normal
145273630921,9.540482521057129,0.02871387079358101,-1.6136597394943237,-0.0016034740256145597,0.10949437320232391,0.0008399150101467967,Normal,Normal
145273633357,9.506983757019043,0.031106693670153618,-1.7979071140289307,-0.0034360159188508987,0.09422318637371063,-0.0009926267666742206,Normal,Normal
145273635792,9.475876808166504,0.014356935396790504,-1.9848463535308838,-0.0064902519807219505,0.06245913356542587,0.002672456670552492,Normal,Normal
145273638227,9.497411727905273,-0.0023928226437419653,-2.135594129562378,-0.005879404954612255,0.014202198944985867,0.0032833039294928312,Normal,Normal
145273640662,9.576375007629395,-0.019142581149935722,-2.20737886428833,-0.007711946498602629,-0.03588727489113808,0.0032833039294928312,Normal,Normal
145273643097,9.660123825073242,-0.038285162299871445,-2.169093608856201,-0.010766183026134968,-0.0859767496585846,0.004504998680204153,Normal,Normal
145273645533,9.767801284790039,-0.040677983313798904,-2.0303099155426025,-0.013209572061896324,-0.11407572776079178,0.006337540224194527,Normal,Normal
145273647968,9.89013385772705,-0.05742774158716202,-1.8218353986740112,-0.012598725035786629,-0.11957334727048874,0.006337540224194527,Normal,Normal
145273650403,9.93559741973877,-0.05503492057323456,-1.5394822359085083,-0.011377030052244663,-0.10002623498439789,0.006948387715965509,Normal,Normal
145273652838,9.971489906311035,-0.040677983313798904,-1.292722463607788,-0.009544488042593002,-0.05421269312500954,0.0051158457063138485,Normal,Normal
145273655273,9.978668212890625,-0.02153540402650833,-1.1300104856491089,-0.005268557462841272,-0.0016798300202935934,0.0008399150101467967,Normal,Normal
145273657709,9.926026344299316,0.01196411345154047,-1.048654556274414,-0.004046862944960594,0.058183200657367706,-0.004657710436731577,Normal,Normal
145273660144,9.823135375976562,0.0,-1.1204391717910767,-0.00038177953683771193,0.10094250738620758,-0.008933641016483307,Normal,Normal
145273662579,9.71515941619873,-0.0023928226437419653,-1.3022937774658203,0.004504998680204153,0.12232216447591782,-0.007711946498602629,Normal,Normal
145273665014,9.600303649902344,-0.02632104977965355,-1.5849459171295166,0.009391776286065578,0.11865708231925964,-0.008322793990373611,Normal,Normal
145273667449,9.559625625610352,-0.031106693670153618,-1.8864415884017944,0.008170082233846188,0.08750387281179428,-0.008322793990373611,Normal,Normal
145273669885,9.535696983337402,-0.016749758273363113,-2.1379871368408203,0.010613471269607544,0.03374931216239929,-0.0034360159188508987,Normal,Normal
145273672320,9.516554832458496,0.0,-2.2791635990142822,0.014278554357588291,-0.029778804630041122,-0.0022143214009702206,Normal,Normal
145273674755,9.540482521057129,0.01196411345154047,-2.293520450592041,0.008780929259955883,-0.08108997344970703,0.0014507622690871358,Normal,Normal
145273677190,9.569196701049805,0.05024927482008934,-2.181057929992676,0.007559234742075205,-0.11590826511383057,0.0014507622690871358,Normal,Normal
145273679625,9.638588905334473,0.05742774158716202,-2.001596212387085,0.01122431829571724,-0.12629267573356628,0.002672456670552492,Normal,Normal
145273682061,9.763015747070312,0.040677983313798904,-1.7979071140289307,0.004504998680204153,-0.111021488904953,0.004504998680204153,Normal,Normal
145273684496,9.808479309082031,0.04546362906694412,-1.5538392066955566,-0.0009926267666742206,-0.07314895838499069,0.0038941511884331703,Normal,Normal
145273686931,9.830313682556152,0.02632104977965355,-1.347757339477539,0.0032833039294928312,-0.020616095513105392,0.0038941511884331703,Normal,Normal
145273689366,9.861420631408691,0.016749758273363113,-1.2376874685287476,-0.007711946498602629,0.03924693539738655,0.0032833039294928312,Normal,Normal
145273691801,9.839884757995605,0.0,-1.220937728881836,-0.007101099472492933,0.08933641016483307,0.0038941511884331703,Normal,Normal
145273694237,9.786943435668945,-0.004785645287483931,-1.3022937774658203,-0.012598725035786629,0.11804623156785965,0.00022906772210262716,Normal,Normal
145273696672,9.72233772277832,0.007178467698395252,-1.4413765668869019,-0.015042114071547985,0.12720894813537598,0.002061609411612153,Normal,Normal
145273699107,9.624231338500977,-0.01196411345154047,-1.6399807929992676,-0.005268557462841272,0.10827267915010452,0.002672456670552492,Normal,Normal
145273701542,9.550054550170898,-0.035892341285943985,-1.8266209363937378,-0.010155336000025272,0.072232685983181,0.0032833039294928312,Normal,Normal
145273703977,9.530911445617676,-0.02632104977965355,-1.9992033243179321,-0.004657710436731577,0.017867282032966614,0.002061609411612153,Normal,Normal
145273706413,9.542876243591309,-0.035892341285943985,-2.090130567550659,0.0038941511884331703,-0.04016320779919624,0.002061609411612153,Normal,Normal
145273708848,9.60508918762207,-0.038285162299871445,-2.090130567550659,-0.004657710436731577,-0.09086353331804276,0.0032833039294928312,Normal,Normal
145273711283,9.693623542785645,-0.04546362906694412,-2.0374884605407715,0.00022906772210262716,-0.1256818175315857,0.002672456670552492,Normal,Normal
145273713718,9.803693771362305,-0.0526420995593071,-1.89840567111969,0.0051158457063138485,-0.1385096162557602,0.004504998680204153,Normal,Normal
145273716153,9.916455268859863,-0.04307080805301666,-1.721336841583252,-0.0022143214009702206,-0.11835165321826935,0.002061609411612153,Normal,Normal
145273718589,10.000204086303711,-0.031106693670153618,-1.5179468393325806,0.004504998680204153,-0.0853659063577652,0.0014507622690871358,Normal,Normal
145273721024,10.01456069946289,-0.009571290574967861,-1.3621143102645874,0.005726693198084831,-0.026724567636847496,-0.00038177953683771193,Normal,Normal
145273723459,9.985847473144531,-0.009571290574967861,-1.2664014101028442,0.0014507622690871358,0.03130592033267021,-0.0028251686599105597,Normal,Normal
145273725894,9.873384475708008,0.014356935396790504,-1.2496516704559326,0.006948387715965509,0.0856713280081749,-0.005879404954612255,Normal,Normal
145273728329,9.74387264251709,0.04785645380616188,-1.3549357652664185,0.0051158457063138485,0.12659808993339539,-0.007711946498602629,Normal,Normal
145273730765,9.6433744430542,0.05742774158716202,-1.5658032894134521,0.006948387715965509,0.1388150453567505,-0.011377030052244663,Normal,Normal
145273733200,9.514162063598633,0.0526420995593071,-1.7955143451690674,0.010613471269607544,0.12171131372451782,-0.008322793990373611,Normal,Normal
145273735635,9.444769859313965,0.062213387340307236,-2.011167526245117,0.0051158457063138485,0.08261708915233612,-0.004046862944960594,Normal,Normal
145273738070,9.456734657287598,0.05742774158716202,-2.1858434677124023,0.007559234742075205,0.023364907130599022,0.00022906772210262716,Normal,Normal
145273740505,9.471091270446777,0.062213387340307236,-2.245664119720459,0.009391776286065578,-0.03955236077308655,0.0038941511884331703,Normal,Normal
145273742941,9.588339805603027,0.05742774158716202,-2.2337000370025635,0.005726693198084831,-0.09330692142248154,0.007559234742075205,Normal,Normal
145273745376,9.686445236206055,0.03349951654672623,-2.066202402114868,0.002061609411612153,-0.12995775043964386,0.01122431829571724,Normal,Normal
145273747811,9.741479873657227,0.0023928226437419653,-1.8026927709579468,-0.0009926267666742206,-0.13362284004688263,0.014889402315020561,Normal,Normal
145273750246,9.806086540222168,-0.02871387079358101,-1.5083755254745483,-0.008322793990373611,-0.10857810080051422,0.015500249341130257,Normal,Normal
145273752681,9.894919395446777,-0.05024927482008934,-1.2616157531738281,-0.005268557462841272,-0.05665608495473862,0.014889402315020561,Normal,Normal
145273755117,9.926026344299316,-0.040677983313798904,-1.1108678579330444,-0.011377030052244663,0.0038177953101694584,0.012446013279259205,Normal,Normal
145273757552,9.926026344299316,-0.02153540402650833,-1.0845468044281006,-0.01382041908800602,0.06184828653931618,0.006948387715965509,Normal,Normal
145273759987,9.92124080657959,-0.019142581149935722,-1.2161520719528198,-0.011377030052244663,0.10582929104566574,-0.00038177953683771193,Normal,Normal
145273762422,9.859027862548828,-0.038285162299871445,-1.4318052530288696,-0.012598725035786629,0.1247655525803566,-0.004046862944960594,Normal,Normal
145273764857,9.782157897949219,-0.031106693670153618,-1.7189439535140991,-0.009544488042593002,0.1119377613067627,-0.008933641016483307,Normal,Normal
145273767293,9.696016311645508,-0.05024927482008934,-2.001596212387085,-0.009544488042593002,0.07467607408761978,-0.012598725035786629,Normal,Normal
145273769728,9.652945518493652,-0.040677983313798904,-2.2025933265686035,0.00022906772210262716,0.020310672000050545,-0.010766183026134968,Normal,Normal
145273772163,9.602696418762207,-0.03349951654672623,-2.3030917644500732,-0.00038177953683771193,-0.03649812191724777,-0.011377030052244663,Normal,Normal
145273774598,9.562018394470215,-0.014356935396790504,-2.2576282024383545,-0.00038177953683771193,-0.0847550556063652,-0.008322793990373611,Normal,Normal
145273777033,9.523733139038086,0.007178467698395252,-2.087737798690796,0.010613471269607544,-0.11407572776079178,-0.0034360159188508987,Normal,Normal
145273779469,9.569196701049805,0.02632104977965355,-1.843370795249939,0.009391776286065578,-0.11407572776079178,0.0014507622690871358,Normal,Normal
145273781904,9.662516593933105,0.04307080805301666,-1.6040884256362915,0.009391776286065578,-0.09391776472330093,0.002061609411612153,Normal,Normal
145273784339,9.739087104797363,0.05503492057323456,-1.3692927360534668,0.013667707331478596,-0.04993676394224167,0.0051158457063138485,Normal,Normal
145273786774,9.825528144836426,0.059820566326379776,-1.2113664150238037,0.010002624243497849,0.001374406274408102,0.002672456670552492,Normal,Normal
145273789209,9.892526626586914,0.064606212079525,-1.1682956218719482,0.0130568603053689,0.04963133856654167,0.004504998680204153,Normal,Normal
145273791645,9.875777244567871,0.04546362906694412,-1.2400803565979004,0.011835165321826935,0.09544488787651062,0.0032833039294928312,Normal,Normal
145273794080,9.851848602294922,0.038285162299871445,-1.3764712810516357,0.0051158457063138485,0.11377029865980148,0.006337540224194527,Normal,Normal
145273796515,9.782157897949219,0.01196411345154047,-1.5634105205535889,0.0051158457063138485,0.10949437320232391,0.006948387715965509,Normal,Normal
145273798950,9.72951602935791,-0.004785645287483931,-1.7787644863128662,0.00022906772210262716,0.08933641016483307,0.007559234742075205,Normal,Normal
145273801385,9.667302131652832,-0.01196411345154047,-1.9824535846710205,-0.0016034740256145597,0.04840964451432228,0.006337540224194527,Normal,Normal
145273803821,9.583553314208984,-0.04307080805301666,-2.1092731952667236,-0.0028251686599105597,-0.0010689827613532543,0.004504998680204153,Normal,Normal
145273806256,9.600303649902344,-0.04546362906694412,-2.1786649227142334,-0.009544488042593002,-0.0462716780602932,0.0032833039294928312,Normal,Normal
145273808691,9.638588905334473,-0.04785645380616188,-2.181057929992676,-0.01382041908800602,-0.08842013776302338,0.0032833039294928312,Normal,Normal
145273811126,9.700801849365234,-0.062213387340307236,-2.087737798690796,-0.010155336000025272,-0.111021488904953,0.0014507622690871358,Normal,Normal
145273813562,9.777372360229492,-0.038285162299871445,-1.9079769849777222,-0.01748550310730934,-0.111632339656353,-0.004046862944960594,Normal,Normal
145273815997,9.842277526855469,-0.0023928226437419653,-1.7069798707962036,-0.012598725035786629,-0.09086353331804276,-0.005879404954612255,Normal,Normal
145273818432,9.873384475708008,0.009571290574967861,-1.477268934249878,-0.010155336000025272,-0.05238015204668045,-0.009544488042593002,Normal,Normal
145273820867,9.851848602294922,0.031106693670153618,-1.2951152324676514,-0.012598725035786629,-0.0004581354442052543,-0.007711946498602629,Normal,Normal
145273823302,9.796515464782715,0.040677983313798904,-1.201795220375061,-0.0028251686599105597,0.05024218559265137,-0.009544488042593002,Normal,Normal
145273825737,9.655338287353516,0.05742774158716202,-1.189831018447876,-0.00038177953683771193,0.09422318637371063,-0.008933641016483307,Normal,Normal
145273828173,9.576375007629395,0.08135596662759781,-1.323829174041748,0.006948387715965509,0.11865708231925964,-0.008322793990373611,Normal,Normal
145273830608,9.547661781311035,0.062213387340307236,-1.5705889463424683,0.014889402315020561,0.11621369421482086,-0.0034360159188508987,Normal,Normal
145273833044,9.514162063598633,0.02632104977965355,-1.8337994813919067,0.010613471269607544,0.08750387281179428,0.0032833039294928312,Normal,Normal
145273835479,9.535696983337402,-0.007178467698395252,-2.0829520225524902,0.016111096367239952,0.03924693539738655,0.008780929259955883,Normal,Normal
145273837914,9.564411163330078,-0.031106693670153618,-2.2337000370025635,0.020997874438762665,-0.01817270554602146,0.014278554357588291,Normal,Normal
145273840349,9.61944580078125,-0.05024927482008934,-2.245664119720459,0.014889402315020561,-0.06642963737249374,0.019776180386543274,Normal,Normal
145273842784,9.717552185058594,-0.064606212079525,-2.159522533416748,0.013667707331478596,-0.10308047384023666,0.02038702741265297,Normal,Normal
145273845220,9.784550666809082,-0.07417750358581543,-1.9558334350585938,0.006337540224194527,-0.11590826511383057,0.018554486334323883,Normal,Normal
145273847655,9.835099220275879,-0.05503492057323456,-1.6878372430801392,0.0014507622690871358,-0.09941539168357849,0.0130568603053689,Normal,Normal
145273850090,9.894919395446777,-0.04307080805301666,-1.4485549926757812,-0.0064902519807219505,-0.05787777900695801,0.0032833039294928312,Normal,Normal
145273852525,9.916455268859863,-0.02871387079358101,-1.2664014101028442,-0.011377030052244663,-0.007788302376866341,-0.0022143214009702206,Normal,Normal
145273854960,9.904491424560547,-0.014356935396790504,-1.2113664150238037,-0.011377030052244663,0.049020491540431976,-0.009544488042593002,Normal,Normal
145273857396,9.854242324829102,-0.004785645287483931,-1.256830096244812,-0.015652960166335106,0.09055810421705246,-0.016874656081199646,Normal,Normal
145273859831,9.796515464782715,-0.0023928226437419653,-1.410269856452942,-0.018096350133419037,0.11010521650314331,-0.018096350133419037,Normal,Normal
145273862266,9.712766647338867,0.014356935396790504,-1.6423736810684204,-0.01382041908800602,0.09972081333398819,-0.02053973823785782,Normal,Normal
145273864701,9.624231338500977,0.04307080805301666,-1.8696918487548828,-0.012598725035786629,0.07040014863014221,-0.019318044185638428,Normal,Normal
145273867136,9.535696983337402,0.059820566326379776,-2.0231316089630127,-0.005879404954612255,0.02764083817601204,-0.012598725035786629,Normal,Normal
145273869572,9.471091270446777,0.08853443711996078,-2.0757737159729004,0.00022906772210262716,-0.021226942539215088,-0.0064902519807219505,Normal,Normal
145273872006,9.459127426147461,0.10049854964017868,-2.042274236679077,0.004504998680204153,-0.062153708189725876,0.00022906772210262716,Normal,Normal
145273874442,9.447162628173828,0.0933200865983963,-1.927119493484497,0.008780929259955883,-0.09147437661886215,0.006337540224194527,Normal,Normal
145273876877,9.48066234588623,0.10767702013254166,-1.781157374382019,0.011835165321826935,-0.09513945877552032,0.010002624243497849,Normal,Normal
145273879312,9.600303649902344,0.07896314561367035,-1.6136597394943237,0.013667707331478596,-0.08292251825332642,0.014889402315020561,Normal,Normal
145273881747,9.696016311645508,0.05024927482008934,-1.4796617031097412,0.015500249341130257,-0.050547610968351364,0.016111096367239952,Normal,Normal
145273884182,9.782157897949219,0.009571290574967861,-1.3645070791244507,0.01122431829571724,-0.009009997360408306,0.01794363744556904,Normal,Normal
145273886618,9.839884757995605,-0.031106693670153618,-1.3310075998306274,0.002672456670552492,0.03130592033267021,0.016111096367239952,Normal,Normal
145273889053,9.868598937988281,-0.04307080805301666,-1.342971682548523,0.005726693198084831,0.06673506647348404,0.0130568603053689,Normal,Normal
145273891488,9.892526626586914,-0.05742774158716202,-1.4485549926757812,0.0038941511884331703,0.08933641016483307,0.008170082233846188,Normal,Normal
145273893923,9.863813400268555,-0.05742774158716202,-1.6064813137054443,-0.008322793990373611,0.08994726091623306,0.0038941511884331703,Normal,Normal
145273896358,9.784550666809082,-0.07178468257188797,-1.7715860605239868,-0.0016034740256145597,0.07467607408761978,-0.0028251686599105597,Normal,Normal
145273898794,9.724730491638184,-0.09092725813388824,-1.9558334350585938,-0.011377030052244663,0.04291202127933502,-0.008322793990373611,Normal,Normal
145273901229,9.707980155944824,-0.09810572862625122,-2.090130567550659,-0.009544488042593002,0.00015271181473508477,-0.010155336000025272,Normal,Normal
145273903664,9.686445236206055,-0.064606212079525,-2.1619153022766113,-0.011377030052244663,-0.04443913698196411,-0.011987877078354359,Normal,Normal
145273906099,9.710372924804688,-0.02871387079358101,-2.1571295261383057,-0.010155336000025272,-0.07986827939748764,-0.011377030052244663,Normal,Normal
145273908534,9.74387264251709,-0.007178467698395252,-2.0518453121185303,-0.010155336000025272,-0.10491301864385605,-0.008933641016483307,Normal,Normal
145273910970,9.75105094909668,0.0,-1.8529419898986816,-0.008322793990373611,-0.10185877978801727,-0.008322793990373611,Normal,Normal
145273913406,9.75344467163086,0.05024927482008934,-1.6423736810684204,-0.007711946498602629,-0.08292251825332642,-0.007101099472492933,Normal,Normal
145273915841,9.734301567077637,0.09092725813388824,-1.4198411703109741,0.0032833039294928312,-0.041384901851415634,-0.0064902519807219505,Normal,Normal
145273918276,9.700801849365234,0.10289137065410614,-1.2640085220336914,0.0032833039294928312,0.009315420873463154,-0.0016034740256145597,Normal,Normal
145273920711,9.6433744430542,0.10049854964017868,-1.2233306169509888,0.007559234742075205,0.0587940476834774,0.0014507622690871358,Normal,Normal
145273923147,9.566803932189941,0.10049854964017868,-1.2640085220336914,0.011835165321826935,0.0978882759809494,0.0038941511884331703,Normal,Normal
145273925582,9.528518676757812,0.08614161610603333,-1.4318052530288696,0.016111096367239952,0.11743538826704025,0.004504998680204153,Normal,Normal
145273928017,9.550054550170898,0.064606212079525,-1.6710875034332275,0.014278554357588291,0.10766182839870453,0.006948387715965509,Normal,Normal
145273930452,9.545269012451172,0.035892341285943985,-1.8840487003326416,0.009391776286065578,0.07773031294345856,0.009391776286065578,Normal,Normal
145273932887,9.554840087890625,0.0023928226437419653,-2.0614166259765625,0.01122431829571724,0.029473381116986275,0.012446013279259205,Normal,Normal
145273935323,9.59073257446289,-0.02153540402650833,-2.1643080711364746,0.008170082233846188,-0.019394399598240852,0.011835165321826935,Normal,Normal
145273937758,9.645767211914062,-0.038285162299871445,-2.1332013607025146,0.006948387715965509,-0.06520794332027435,0.011835165321826935,Normal,Normal
145273940193,9.719944953918457,-0.05024927482008934,-2.025524377822876,-0.0009926267666742206,-0.09452861547470093,0.008170082233846188,Normal,Normal
145273942628,9.808479309082031,-0.059820566326379776,-1.83619225025177,-0.008933641016483307,-0.10308047384023666,0.004504998680204153,Normal,Normal
145273945063,9.839884757995605,-0.05024927482008934,-1.592124342918396,-0.011377030052244663,-0.08964183181524277,0.0032833039294928312,Normal,Normal
145273947499,9.859027862548828,-0.038285162299871445,-1.3668999671936035,-0.011377030052244663,-0.052990999072790146,-0.0022143214009702206,Normal,Normal
145273949934,9.854242324829102,-0.019142581149935722,-1.1994023323059082,-0.01382041908800602,-0.007788302376866341,-0.005879404954612255,Normal,Normal
145273952368,9.866206169128418,0.014356935396790504,-1.1635099649429321,-0.018707197159528732,0.03680354729294777,-0.009544488042593002,Normal,Normal
145273954803,9.842277526855469,0.016749758273363113,-1.2664014101028442,-0.011377030052244663,0.07101099193096161,-0.011987877078354359,Normal,Normal
145273957238,9.803693771362305,0.031106693670153618,-1.4533406496047974,-0.007711946498602629,0.08750387281179428,-0.013209572061896324,Normal,Normal
145273959673,9.71515941619873,0.03349951654672623,-1.6878372430801392,-0.007101099472492933,0.08139539510011673,-0.010766183026134968,Normal,Normal
145273962108,9.662516593933105,0.02632104977965355,-1.9462621212005615,-0.0028251686599105597,0.05085303261876106,-0.007711946498602629,Normal,Normal
145273964544,9.600303649902344,0.01196411345154047,-2.1308085918426514,0.0038941511884331703,0.011147962883114815,0.002061609411612153,Normal,Normal
145273966979,9.550054550170898,0.02392822690308094,-2.2480568885803223,0.0008399150101467967,-0.033443886786699295,0.0051158457063138485,Normal,Normal
145273969414,9.547661781311035,-0.0023928226437419653,-2.2648067474365234,0.008170082233846188,-0.0713164210319519,0.01122431829571724,Normal,Normal
145273971849,9.578767776489258,-0.019142581149935722,-2.169093608856201,0.012446013279259205,-0.09208522737026215,0.011835165321826935,Normal,Normal
145273974284,9.62901782989502,-0.0023928226437419653,-2.008774518966675,0.011835165321826935,-0.09208522737026215,0.014278554357588291,Normal,Normal
145273976720,9.684052467346191,-0.02392822690308094,-1.800299882888794,0.004504998680204153,-0.07314895838499069,0.013667707331478596,Normal,Normal
145273979155,9.731908798217773,-0.03349951654672623,-1.572981834411621,0.008780929259955883,-0.033443886786699295,0.010613471269607544,Normal,Normal
145273981590,9.801301002502441,-0.004785645287483931,-1.3932210206985474,0.009391776286065578,0.01175880990922451,0.006948387715965509,Normal,Normal
145273984025,9.873384475708008,-0.009571290574967861,-1.311864972114563,0.004504998680204153,0.055739812552928925,0.0014507622690871358,Normal,Normal
145273986461,9.854242324829102,-0.02153540402650833,-1.3070793151855469,0.006337540224194527,0.09239064902067184,-0.0028251686599105597,Normal,Normal
145273988896,9.815657615661621,-0.040677983313798904,-1.3932210206985474,-0.0028251686599105597,0.10827267915010452,-0.007101099472492933,Normal,Normal
145273991331,9.777372360229492,-0.0526420995593071,-1.532303810119629,-0.004046862944960594,0.10216420143842697,-0.0064902519807219505,Normal,Normal
145273993766,9.712766647338867,-0.04546362906694412,-1.6710875034332275,-0.0016034740256145597,0.07711946964263916,-0.007711946498602629,Normal,Normal
145273996201,9.645767211914062,0.0,-1.800299882888794,-0.005268557462841272,0.038636088371276855,-0.007711946498602629,Normal,Normal
145273998637,9.595518112182617,0.009571290574967861,-1.8840487003326416,-0.0064902519807219505,-0.0065666078589856625,-0.005879404954612255,Normal,Normal
145274001072,9.569196701049805,0.04546362906694412,-1.9175482988357544,0.0038941511884331703,-0.04871506989002228,-0.004046862944960594,Normal,Normal
145274003507,9.602696418762207,0.03349951654672623,-1.9319051504135132,-0.0028251686599105597,-0.08108997344970703,0.0008399150101467967,Normal,Normal
145274005942,9.650552749633789,0.02392822690308094,-1.8816559314727783,-0.004657710436731577,-0.10124793648719788,0.002672456670552492,Normal,Normal
145274008377,9.686445236206055,0.007178467698395252,-1.7835501432418823,0.002672456670552492,-0.10002623498439789,0.004504998680204153,Normal,Normal
145274010813,9.741479873657227,0.0023928226437419653,-1.6806588172912598,-0.0016034740256145597,-0.08231166750192642,0.008170082233846188,Normal,Normal
145274013248,9.8207426071167,-0.004785645287483931,-1.5753746032714844,-0.004657710436731577,-0.050547610968351364,0.008780929259955883,Normal,Normal
145274015683,9.880562782287598,-0.004785645287483931,-1.5131611824035645,-0.00038177953683771193,-0.009009997360408306,0.006948387715965509,Normal,Normal
145274018118,9.894919395446777,0.0023928226437419653,-1.5131611824035645,-0.004046862944960594,0.028251685202121735,0.0051158457063138485,Normal,Normal
145274020553,9.825528144836426,0.014356935396790504,-1.5394822359085083,0.00022906772210262716,0.06184828653931618,0.0038941511884331703,Normal,Normal
145274022989,9.741479873657227,0.004785645287483931,-1.6304094791412354,-0.0028251686599105597,0.08322793990373611,0.00022906772210262716,Normal,Normal
145274025424,9.696016311645508,-0.019142581149935722,-1.7620147466659546,-0.0009926267666742206,0.0856713280081749,-0.0016034740256145597,Normal,Normal
145274027859,9.61226749420166,-0.0526420995593071,-1.9007984399795532,0.004504998680204153,0.072232685983181,-0.00038177953683771193,Normal,Normal
145274030294,9.557232856750488,-0.07178468257188797,-2.0159530639648438,-0.0022143214009702206,0.04291202127933502,0.00022906772210262716,Normal,Normal
145274032729,9.583553314208984,-0.07178468257188797,-2.1092731952667236,0.0051158457063138485,0.007482878863811493,0.0032833039294928312,Normal,Normal
145274035164,9.657731056213379,-0.059820566326379776,-2.1260228157043457,0.002672456670552492,-0.03161134570837021,0.0014507622690871358,Normal,Normal
145274037599,9.734301567077637,-0.05503492057323456,-2.042274236679077,-0.0009926267666742206,-0.06704048812389374,0.0038941511884331703,Normal,Normal
145274040035,9.794121742248535,-0.0526420995593071,-1.872084617614746,0.0014507622690871358,-0.08292251825332642,0.0014507622690871358,Normal,Normal
145274042470,9.866206169128418,-0.02392822690308094,-1.6375880241394043,0.00022906772210262716,-0.07681404054164886,0.0032833039294928312,Normal,Normal
145274044905,9.887741088867188,-0.02871387079358101,-1.3908281326293945,0.002061609411612153,-0.05360184609889984,0.00022906772210262716,Normal,Normal
145274047340,9.882955551147461,-0.02153540402650833,-1.197009563446045,-0.007101099472492933,-0.016340164467692375,-0.00038177953683771193,Normal,Normal
145274049776,9.847063064575195,-0.03349951654672623,-1.1012966632843018,0.008170082233846188,0.029473381116986275,-0.004046862944960594,Normal,Normal
145274052211,9.796515464782715,-0.02153540402650833,-1.1300104856491089,-0.00038177953683771193,0.06795676052570343,-0.004046862944960594,Normal,Normal
145274054646,9.782157897949219,-0.004785645287483931,-1.3094722032546997,0.002061609411612153,0.08811471611261368,-0.005268557462841272,Normal,Normal
145274057081,9.767801284790039,-0.007178467698395252,-1.5777673721313477,0.007559234742075205,0.0850604772567749,-0.005268557462841272,Normal,Normal
145274059516,9.734301567077637,0.007178467698395252,-1.8625133037567139,-0.004046862944960594,0.06001574173569679,-0.0028251686599105597,Normal,Normal
145274061952,9.698409080505371,-0.007178467698395252,-2.121237277984619,0.0008399150101467967,0.02092151902616024,-0.0022143214009702206,Normal,Normal
145274064387,9.6433744430542,-0.035892341285943985,-2.276770830154419,0.0051158457063138485,-0.02733541466295719,-0.00038177953683771193,Normal,Normal
145274066822,9.60508918762207,-0.031106693670153618,-2.307877540588379,-0.005268557462841272,-0.06398624926805496,0.004504998680204153,Normal,Normal
145274069257,9.602696418762207,-0.019142581149935722,-2.2408783435821533,0.002672456670552492,-0.09269607067108154,0.005726693198084831,Normal,Normal
145274071693,9.602696418762207,-0.009571290574967861,-2.0542383193969727,-0.0022143214009702206,-0.09391776472330093,0.0038941511884331703,Normal,Normal
145274074128,9.650552749633789,0.004785645287483931,-1.807478427886963,-0.010766183026134968,-0.07986827939748764,0.005726693198084831,Normal,Normal
145274076563,9.672088623046875,0.019142581149935722,-1.5490535497665405,0.0008399150101467967,-0.04504998400807381,0.004504998680204153,Normal,Normal
145274078998,9.691230773925781,0.02632104977965355,-1.316650629043579,-0.008322793990373611,0.005650337319821119,0.00022906772210262716,Normal,Normal
145274081433,9.763015747070312,-0.0023928226437419653,-1.2041879892349243,-0.004657710436731577,0.051463883370161057,0.00022906772210262716,Normal,Normal
145274083869,9.803693771362305,-0.031106693670153618,-1.220937728881836,0.006337540224194527,0.08628217875957489,-0.0009926267666742206,Normal,Normal
145274086304,9.779765129089355,-0.04307080805301666,-1.342971682548523,0.0032833039294928312,0.10033166408538818,-0.00038177953683771193,Normal,Normal
145274088739,9.794121742248535,-0.06699903309345245,-1.5227324962615967,0.007559234742075205,0.09422318637371063,-0.0016034740256145597,Normal,Normal
145274091174,9.789336204528809,-0.07896314561367035,-1.709372639656067,0.004504998680204153,0.06490252166986465,0.0032833039294928312,Normal,Normal
145274093609,9.770194053649902,-0.08614161610603333,-1.86729896068573,0.006337540224194527,0.02764083817601204,0.006337540224194527,Normal,Normal
145274096045,9.734301567077637,-0.07657032459974289,-1.9510477781295776,0.002061609411612153,-0.016340164467692375,0.006948387715965509,Normal,Normal
145274098480,9.703194618225098,-0.08374879509210587,-1.9920248985290527,0.006948387715965509,-0.05543438717722893,0.008170082233846188,Normal,Normal
145274100915,9.703194618225098,-0.10049854964017868,-1.970489501953125,-0.0009926267666742206,-0.08108997344970703,0.004504998680204153,Normal,Normal
145274103350,9.703194618225098,-0.08853443711996078,-1.8744773864746094,-0.008322793990373611,-0.09208522737026215,0.0038941511884331703,Normal,Normal
145274105785,9.741479873657227,-0.07657032459974289,-1.7691932916641235,0.002061609411612153,-0.08047912269830704,0.00022906772210262716,Normal,Normal
145274108221,9.796515464782715,-0.05024927482008934,-1.6639090776443481,-0.0022143214009702206,-0.05665608495473862,-0.0016034740256145597,Normal,Normal
145274110656,9.803693771362305,-0.035892341285943985,-1.5586248636245728,-0.009544488042593002,-0.023059483617544174,-0.005879404954612255,Normal,Normal
145274113091,9.796515464782715,-0.05024927482008934,-1.4892330169677734,-0.0016034740256145597,0.014202198944985867,-0.010155336000025272,Normal,Normal
145274115526,9.763015747070312,-0.040677983313798904,-1.4653047323226929,-0.008322793990373611,0.047798797488212585,-0.010766183026134968,Normal,Normal
145274117961,9.698409080505371,-0.009571290574967861,-1.4988043308258057,-0.005268557462841272,0.072232685983181,-0.011987877078354359,Normal,Normal
145274120396,9.609874725341797,0.02871387079358101,-1.5801602602005005,0.002672456670552492,0.08139539510011673,-0.011377030052244663,Normal,Normal
145274122832,9.552447319030762,0.03349951654672623,-1.678265929222107,-0.0009926267666742206,0.07650861889123917,-0.008322793990373611,Normal,Normal
145274125267,9.509376525878906,0.04785645380616188,-1.77397882938385,0.0051158457063138485,0.054518118500709534,-0.0034360159188508987,Normal,Normal
145274127702,9.478269577026367,0.040677983313798904,-1.8577276468276978,0.0038941511884331703,0.02214321307837963,0.0014507622690871358,Normal,Normal
145274130137,9.485447883605957,0.02392822690308094,-1.9151554107666016,0.006337540224194527,-0.009009997360408306,0.006948387715965509,Normal,Normal
145274132572,9.562018394470215,0.0023928226437419653,-1.92951238155365,0.009391776286065578,-0.04504998400807381,0.010613471269607544,Normal,Normal
145274135008,9.657731056213379,-0.007178467698395252,-1.8768702745437622,0.0032833039294928312,-0.06704048812389374,0.014889402315020561,Normal,Normal
145274137443,9.779765129089355,-0.04546362906694412,-1.7620147466659546,0.0032833039294928312,-0.07986827939748764,0.015500249341130257,Normal,Normal
145274139878,9.854242324829102,-0.064606212079525,-1.623231053352356,0.0051158457063138485,-0.06887302547693253,0.015500249341130257,Normal,Normal
145274142313,9.911669731140137,-0.07896314561367035,-1.477268934249878,-0.0009926267666742206,-0.04871506989002228,0.014278554357588291,Normal,Normal
145274144748,9.976275444030762,-0.07417750358581543,-1.3908281326293945,-0.0064902519807219505,-0.01511846948415041,0.009391776286065578,Normal,Normal
145274147184,9.981060981750488,-0.06699903309345245,-1.347757339477539,-0.0028251686599105597,0.01969982497394085,0.004504998680204153,Normal,Normal
145274149619,9.918848037719727,-0.06939185410737991,-1.3932210206985474,-0.010766183026134968,0.049020491540431976,-0.0034360159188508987,Normal,Normal
145274152054,9.837491989135742,-0.06699903309345245,-1.5131611824035645,-0.012598725035786629,0.07040014863014221,-0.009544488042593002,Normal,Normal
145274154489,9.724730491638184,-0.08614161610603333,-1.6758731603622437,-0.010766183026134968,0.07406523078680038,-0.011987877078354359,Normal,Normal
145274156925,9.650552749633789,-0.07657032459974289,-1.86729896068573,-0.008933641016483307,0.0587940476834774,-0.01382041908800602,Normal,Normal
145274159360,9.569196701049805,-0.0526420995593071,-2.042274236679077,-0.007101099472492933,0.0325276181101799,-0.015042114071547985,Normal,Normal
145274161795,9.51894760131836,-0.02392822690308094,-2.1236300468444824,-0.0028251686599105597,-0.004123218823224306,-0.01382041908800602,Normal,Normal
145274164230,9.49501895904541,-0.0023928226437419653,-2.1571295261383057,-0.0028251686599105597,-0.04016320779919624,-0.011377030052244663,Normal,Normal
145274166665,9.502198219299316,0.009571290574967861,-2.090130567550659,-0.0009926267666742206,-0.06826218217611313,-0.005879404954612255,Normal,Normal
145274169101,9.538089752197266,0.038285162299871445,-1.9151554107666016,0.004504998680204153,-0.07986827939748764,-0.0016034740256145597,Normal,Normal
145274171536,9.617053031921387,0.059820566326379776,-1.714158296585083,0.006337540224194527,-0.0725381150841713,0.0032833039294928312,Normal,Normal
145274173971,9.681659698486328,0.0526420995593071,-1.4724832773208618,0.013667707331478596,-0.050547610968351364,0.0051158457063138485,Normal,Normal
145274176406,9.717552185058594,0.0526420995593071,-1.2735798358917236,0.009391776286065578,-0.012064233422279358,0.007559234742075205,Normal,Normal
145274178841,9.770194053649902,0.040677983313798904,-1.1682956218719482,0.011835165321826935,0.02641914412379265,0.009391776286065578,Normal,Normal
145274181277,9.806086540222168,0.019142581149935722,-1.1730812788009644,0.009391776286065578,0.06673506647348404,0.009391776286065578,Normal,Normal
145274183712,9.796515464782715,-0.004785645287483931,-1.2855439186096191,0.01122431829571724,0.08628217875957489,0.010002624243497849,Normal,Normal
145274186147,9.815657615661621,-0.04307080805301666,-1.4653047323226929,0.0032833039294928312,0.08933641016483307,0.008170082233846188,Normal,Normal
145274188582,9.767801284790039,-0.07417750358581543,-1.6926229000091553,0.002061609411612153,0.07650861889123917,0.008780929259955883,Normal,Normal
145274191017,9.72951602935791,-0.08853443711996078,-1.9414764642715454,0.0008399150101467967,0.04107947647571564,0.005726693198084831,Normal,Normal
145274193452,9.710372924804688,-0.10049854964017868,-2.128415822982788,-0.007711946498602629,-0.0016798300202935934,0.0038941511884331703,Normal,Normal
145274195888,9.664909362792969,-0.10767702013254166,-2.214557409286499,-0.008933641016483307,-0.04443913698196411,0.002672456670552492,Normal,Normal
145274198323,9.674481391906738,-0.0933200865983963,-2.2193429470062256,-0.010766183026134968,-0.08108997344970703,-0.0016034740256145597,Normal,Normal
145274200758,9.691230773925781,-0.06939185410737991,-2.1379871368408203,-0.015652960166335106,-0.09697200357913971,-0.005268557462841272,Normal,Normal
145274203193,9.717552185058594,-0.04546362906694412,-1.9606190919876099,-0.018096350133419037,-0.0975828468799591,-0.008933641016483307,Normal,Normal
145274205628,9.734301567077637,-0.009571290574967861,-1.7476578950881958,-0.018096350133419037,-0.07864658534526825,-0.010766183026134968,Normal,Normal
145274208064,9.741479873657227,0.03349951654672623,-1.5418751239776611,-0.01626380905508995,-0.042606595903635025,-0.015042114071547985,Normal,Normal
145274210499,9.74387264251709,0.059820566326379776,-1.374078392982483,-0.005879404954612255,0.001374406274408102,-0.015042114071547985,Normal,Normal
145274212934,9.724730491638184,0.07657032459974289,-1.2855439186096191,-0.013209572061896324,0.0459662564098835,-0.01626380905508995,Normal,Normal
145274215369,9.655338287353516,0.07657032459974289,-1.3046865463256836,0.0008399150101467967,0.07956285774707794,-0.012598725035786629,Normal,Normal
145274217805,9.602696418762207,0.07178468257188797,-1.3956137895584106,0.018554486334323883,0.09239064902067184,-0.005879404954612255,Normal,Normal
145274220240,9.581160545349121,0.05742774158716202,-1.561017632484436,0.007559234742075205,0.09361234307289124,0.0014507622690871358,Normal,Normal
145274222675,9.554840087890625,0.02871387079358101,-1.7428722381591797,0.018554486334323883,0.06795676052570343,0.008780929259955883,Normal,Normal
145274225110,9.528518676757812,0.0023928226437419653,-1.8768702745437622,0.02283041551709175,0.03497100621461868,0.011835165321826935,Normal,Normal
145274227545,9.533304214477539,-0.02153540402650833,-1.9872392416000366,0.013667707331478596,-0.004734066314995289,0.01794363744556904,Normal,Normal
145274229981,9.60508918762207,-0.035892341285943985,-2.0542383193969727,0.02038702741265297,-0.04321744292974472,0.019776180386543274,Normal,Normal
145274232416,9.684052467346191,-0.064606212079525,-2.025524377822876,0.012446013279259205,-0.07070557028055191,0.019776180386543274,Normal,Normal
145274234851,9.782157897949219,-0.07896314561367035,-1.8936200141906738,0.002672456670552492,-0.08231166750192642,0.016721943393349648,Normal,Normal
145274237286,9.859027862548828,-0.09571290761232376,-1.7189439535140991,-0.005268557462841272,-0.07681404054164886,0.011835165321826935,Normal,Normal
145274239721,9.892526626586914,-0.07657032459974289,-1.5418751239776611,-0.0034360159188508987,-0.04871506989002228,0.002061609411612153,Normal,Normal
145274242157,9.947562217712402,-0.038285162299871445,-1.4246268272399902,-0.013209572061896324,-0.01572931744158268,-0.004046862944960594,Normal,Normal
145274244592,9.942776679992676,-0.02392822690308094,-1.3692927360534668,-0.021150587126612663,0.02092151902616024,-0.015042114071547985,Normal,Normal
145274247027,9.887741088867188,0.0,-1.415055513381958,-0.02053973823785782,0.04840964451432228,-0.02053973823785782,Normal,Normal
145274249462,9.825528144836426,0.02153540402650833,-1.501197099685669,-0.016874656081199646,0.06612421572208405,-0.024815669283270836,Normal,Normal
145274251897,9.755837440490723,0.019142581149935722,-1.678265929222107,-0.01626380905508995,0.06184828653931618,-0.02420482225716114,Normal,Normal
145274254333,9.664909362792969,0.02632104977965355,-1.8505492210388184,-0.005879404954612255,0.04718795046210289,-0.02053973823785782,Normal,Normal
145274256768,9.588339805603027,0.05742774158716202,-2.0135602951049805,-0.0034360159188508987,0.01725643500685692,-0.014431266114115715,Normal,Normal
145274259203,9.502198219299316,0.07896314561367035,-2.097309112548828,0.0008399150101467967,-0.01511846948415041,-0.007101099472492933,Normal,Normal
145274261638,9.478269577026367,0.06699903309345245,-2.1020946502685547,0.0014507622690871358,-0.04810422286391258,0.0008399150101467967,Normal,Normal
145274264073,9.451948165893555,0.08853443711996078,-2.0542383193969727,0.006948387715965509,-0.06765133142471313,0.009391776286065578,Normal,Normal
145274266509,9.454340934753418,0.09571290761232376,-1.9127626419067383,0.016111096367239952,-0.0725381150841713,0.016111096367239952,Normal,Normal
145274268944,9.562018394470215,0.064606212079525,-1.745265007019043,0.008780929259955883,-0.05665608495473862,0.019776180386543274,Normal,Normal
145274271379,9.674481391906738,0.02632104977965355,-1.6016956567764282,0.0130568603053689,-0.031000498682260513,0.02038702741265297,Normal,Normal
145274273814,9.741479873657227,-0.0023928226437419653,-1.446162223815918,0.016721943393349648,0.008093725889921188,0.01916533336043358,Normal,Normal
145274276249,9.796515464782715,-0.014356935396790504,-1.3668999671936035,0.010002624243497849,0.04046862944960594,0.016111096367239952,Normal,Normal
145274278685,9.851848602294922,-0.059820566326379776,-1.3645070791244507,0.002061609411612153,0.06978929787874222,0.01122431829571724,Normal,Normal
145274281120,9.851848602294922,-0.06699903309345245,-1.4246268272399902,0.0032833039294928312,0.08139539510011673,0.0051158457063138485,Normal,Normal
145274283555,9.868598937988281,-0.06699903309345245,-1.5586248636245728,-0.0028251686599105597,0.0850604772567749,-0.0009926267666742206,Normal,Normal
145274285990,9.868598937988281,-0.07896314561367035,-1.7045869827270508,-0.008322793990373611,0.06245913356542587,-0.007711946498602629,Normal,Normal
145274288425,9.837491989135742,-0.05742774158716202,-1.843370795249939,-0.009544488042593002,0.02641914412379265,-0.011377030052244663,Normal,Normal
145274290861,9.782157897949219,-0.040677983313798904,-1.9247267246246338,-0.011377030052244663,-0.009620844386518002,-0.01382041908800602,Normal,Normal
145274293296,9.71515941619873,-0.02632104977965355,-1.9606190919876099,-0.004657710436731577,-0.04504998400807381,-0.014431266114115715,Normal,Normal
145274295731,9.679266929626465,-0.004785645287483931,-1.9199410676956177,-0.016874656081199646,-0.0725381150841713,-0.015042114071547985,Normal,Normal
145274298166,9.686445236206055,0.02871387079358101,-1.83619225025177,-0.004657710436731577,-0.08292251825332642,-0.011987877078354359,Normal,Normal
145274300601,9.679266929626465,0.04307080805301666,-1.690230131149292,-0.005268557462841272,-0.07925742864608765,-0.007101099472492933,Normal,Normal
145274303037,9.698409080505371,0.08135596662759781,-1.5418751239776611,-0.007711946498602629,-0.05787777900695801,-0.005879404954612255,Normal,Normal
145274305472,9.71515941619873,0.11485548317432404,-1.410269856452942,0.005726693198084831,-0.029167955741286278,-0.0016034740256145597,Normal,Normal
145274307907,9.698409080505371,0.13878370821475983,-1.3549357652664185,0.008170082233846188,0.01175880990922451,-0.00038177953683771193,Normal,Normal
145274310342,9.669695854187012,0.13878370821475983,-1.3549357652664185,0.006337540224194527,0.04352286830544472,0.002061609411612153,Normal,Normal
145274312777,9.657731056213379,0.1052841991186142,-1.470090389251709,0.014278554357588291,0.06978929787874222,0.0008399150101467967,Normal,Normal
145274315212,9.655338287353516,0.064606212079525,-1.6615161895751953,0.016111096367239952,0.07101099193096161,0.0051158457063138485,Normal,Normal
145274317648,9.667302131652832,0.02632104977965355,-1.872084617614746,0.008780929259955883,0.06368082761764526,0.007559234742075205,Normal,Normal
145274320083,9.674481391906738,-0.0023928226437419653,-2.059023857116699,0.016721943393349648,0.030695075169205666,0.012446013279259205,Normal,Normal
145274322518,9.676874160766602,-0.02871387079358101,-2.149951219558716,0.008170082233846188,0.00259610079228878,0.013667707331478596,Normal,Normal
145274324953,9.688838005065918,-0.03349951654672623,-2.1547367572784424,0.008170082233846188,-0.02733541466295719,0.016111096367239952,Normal,Normal
145274327388,9.698409080505371,-0.04546362906694412,-2.087737798690796,0.008780929259955883,-0.050547610968351364,0.012446013279259205,Normal,Normal
145274329824,9.724730491638184,-0.07657032459974289,-1.927119493484497,-0.008933641016483307,-0.059710320085287094,0.010002624243497849,Normal,Normal
145274332259,9.763015747070312,-0.064606212079525,-1.7476578950881958,-0.009544488042593002,-0.05115845799446106,0.005726693198084831,Normal,Normal
145274334694,9.794121742248535,-0.0526420995593071,-1.5346965789794922,-0.008322793990373611,-0.029778804630041122,0.0038941511884331703,Normal,Normal
145274337129,9.782157897949219,-0.040677983313798904,-1.3597214221954346,-0.022372281178832054,0.0007635590736754239,-0.0034360159188508987,Normal,Normal
145274339564,9.794121742248535,-0.02632104977965355,-1.2735798358917236,-0.013209572061896324,0.02886253222823143,-0.008322793990373611,Normal,Normal
145274342000,9.823135375976562,-0.0023928226437419653,-1.2735798358917236,-0.008933641016483307,0.05207473039627075,-0.01382041908800602,Normal,Normal
145274344435,9.827920913696289,0.016749758273363113,-1.3310075998306274,-0.011987877078354359,0.06429167091846466,-0.014431266114115715,Normal,Normal
145274346870,9.796515464782715,0.035892341285943985,-1.4605190753936768,0.0008399150101467967,0.05635065957903862,-0.01382041908800602,Normal,Normal
145274349305,9.717552185058594,0.035892341285943985,-1.5849459171295166,-0.004657710436731577,0.03924693539738655,-0.011987877078354359,Normal,Normal
145274351741,9.62901782989502,0.05024927482008934,-1.6998014450073242,0.0038941511884331703,0.016034740954637527,-0.009544488042593002,Normal,Normal
145274354176,9.545269012451172,0.05503492057323456,-1.7931214570999146,0.008170082233846188,-0.012675080448389053,-0.004657710436731577,Normal,Normal
145274356611,9.475876808166504,0.03349951654672623,-1.8529419898986816,0.016111096367239952,-0.034665580838918686,0.002672456670552492,Normal,Normal
145274359046,9.492626190185547,0.02871387079358101,-1.8864415884017944,0.016111096367239952,-0.05665608495473862,0.008780929259955883,Normal,Normal
145274361482,9.554840087890625,0.02632104977965355,-1.903191328048706,0.008170082233846188,-0.062153708189725876,0.014278554357588291,Normal,Normal
145274363917,9.609874725341797,0.02392822690308094,-1.8601205348968506,0.014889402315020561,-0.05787777900695801,0.014889402315020561,Normal,Normal
145274366352,9.724730491638184,0.016749758273363113,-1.781157374382019,0.008170082233846188,-0.04443913698196411,0.014278554357588291,Normal,Normal
145274368787,9.839884757995605,0.02632104977965355,-1.6806588172912598,0.002672456670552492,-0.02244863659143448,0.010002624243497849,Normal,Normal
145274371222,9.897313117980957,0.02871387079358101,-1.5586248636245728,0.006337540224194527,0.004428642801940441,0.005726693198084831,Normal,Normal
145274373657,9.909276962280273,0.02392822690308094,-1.470090389251709,-0.0022143214009702206,0.0325276181101799,0.00022906772210262716,Normal,Normal
145274376093,9.859027862548828,0.01196411345154047,-1.4437693357467651,-0.013209572061896324,0.05512896552681923,-0.0028251686599105597,Normal,Normal
145274378528,9.784550666809082,-0.007178467698395252,-1.4653047323226929,0.00022906772210262716,0.06795676052570343,-0.005879404954612255,Normal,Normal
145274380963,9.705587387084961,-0.014356935396790504,-1.5418751239776611,-0.011377030052244663,0.06856760382652283,-0.008322793990373611,Normal,Normal
145274383398,9.650552749633789,-0.02153540402650833,-1.678265929222107,-0.009544488042593002,0.055739812552928925,-0.008322793990373611,Normal,Normal
145274385834,9.624231338500977,-0.019142581149935722,-1.8457635641098022,-0.00038177953683771193,0.02764083817601204,-0.005268557462841272,Normal,Normal
145274388269,9.686445236206055,-0.014356935396790504,-2.001596212387085,-0.012598725035786629,-0.009009997360408306,-0.0009926267666742206,Normal,Normal
145274390704,9.765408515930176,-0.01196411345154047,-2.0853450298309326,-0.005268557462841272,-0.052990999072790146,0.002672456670552492,Normal,Normal
145274393139,9.8207426071167,-0.007178467698395252,-2.063809633255005,-0.004657710436731577,-0.08047912269830704,0.005726693198084831,Normal,Normal
145274395574,9.813264846801758,-0.007178467698395252,-1.9462621212005615,-0.004657710436731577,-0.09575030952692032,0.006337540224194527,Normal,Normal
145274398010,9.796515464782715,-0.01196411345154047,-1.745265007019043,-0.0016034740256145597,-0.08658760040998459,0.005726693198084831,Normal,Normal
145274400445,9.746265411376953,-0.0023928226437419653,-1.5418751239776611,-0.0009926267666742206,-0.05665608495473862,0.010002624243497849,Normal,Normal
145274402880,9.693623542785645,0.035892341285943985,-1.347757339477539,-0.0009926267666742206,-0.0065666078589856625,0.004504998680204153,Normal,Normal
145274405315,9.638588905334473,0.040677983313798904,-1.2616157531738281,0.002672456670552492,0.04474456235766411,-0.0009926267666742206,Normal,Normal
145274407750,9.640981674194336,0.02153540402650833,-1.3621143102645874,0.01122431829571724,0.08261708915233612,-0.004046862944960594,Normal,Normal
145274410186,9.660123825073242,0.02392822690308094,-1.5227324962615967,0.0014507622690871358,0.09544488787651062,-0.0064902519807219505,Normal,Normal
145274412621,9.638588905334473,0.0023928226437419653,-1.7117655277252197,0.0014507622690871358,0.09422318637371063,-0.007711946498602629,Normal,Normal
145274415056,9.648159980773926,0.0023928226437419653,-1.9103697538375854,0.015500249341130257,0.06490252166986465,-0.004657710436731577,Normal,Normal
145274417491,9.624231338500977,-0.02153540402650833,-2.049452543258667,0.004504998680204153,0.022754060104489326,-0.0016034740256145597,Normal,Normal
145274419926,9.581160545349121,-0.04785645380616188,-2.066202402114868,0.006948387715965509,-0.020616095513105392,0.0038941511884331703,Normal,Normal
145274422362,9.559625625610352,-0.0526420995593071,-2.008774518966675,0.011835165321826935,-0.05726693198084831,0.0051158457063138485,Normal,Normal
145274424797,9.614660263061523,-0.07896314561367035,-1.9247267246246338,-0.0034360159188508987,-0.07742489129304886,0.008170082233846188,Normal,Normal
145274427232,9.76062297821045,-0.07178468257188797,-1.8218353986740112,0.0038941511884331703,-0.08842013776302338,0.0130568603053689,Normal,Normal
145274429667,9.909276962280273,-0.04785645380616188,-1.6926229000091553,-0.0034360159188508987,-0.08292251825332642,0.0130568603053689,Normal,Normal
145274432102,10.02413272857666,-0.01196411345154047,-1.55623197555542,-0.005879404954612255,-0.0584886260330677,0.010002624243497849,Normal,Normal
145274434538,10.112667083740234,0.02153540402650833,-1.4796617031097412,-0.0064902519807219505,-0.025502873584628105,0.004504998680204153,Normal,Normal
145274436973,10.158130645751953,0.019142581149935722,-1.4557334184646606,-0.007711946498602629,0.008093725889921188,0.00022906772210262716,Normal,Normal
145274439408,10.064809799194336,0.007178467698395252,-1.4365909099578857,-0.009544488042593002,0.039857782423496246,-0.007101099472492933,Normal,Normal
145274441843,9.902098655700684,-0.014356935396790504,-1.4844473600387573,-0.0064902519807219505,0.06551336497068405,-0.010766183026134968,Normal,Normal
145274444278,9.693623542785645,-0.031106693670153618,-1.592124342918396,-0.013209572061896324,0.08017370104789734,-0.011377030052244663,Normal,Normal
145274446714,9.46630573272705,-0.04546362906694412,-1.7333009243011475,0.0008399150101467967,0.08139539510011673,-0.010766183026134968,Normal,Normal
145274449149,9.303593635559082,-0.031106693670153618,-1.9151554107666016,-0.005879404954612255,0.06551336497068405,-0.005879404954612255,Normal,Normal
145274451584,9.279664993286133,-0.01196411345154047,-2.121237277984619,0.00022906772210262716,0.03436015918850899,-0.0028251686599105597,Normal,Normal
145274454019,9.423234939575195,0.038285162299871445,-2.3198416233062744,0.006948387715965509,-0.013285927474498749,0.0014507622690871358,Normal,Normal
145274456454,9.61944580078125,0.038285162299871445,-2.4155545234680176,-0.0034360159188508987,-0.06520794332027435,0.002061609411612153,Normal,Normal
145274458890,9.76062297821045,0.0526420995593071,-2.3700907230377197,0.0038941511884331703,-0.111632339656353,0.0038941511884331703,Normal,Normal
145274461325,9.863813400268555,0.035892341285943985,-2.1236300468444824,0.007559234742075205,-0.1250709742307663,0.006948387715965509,Normal,Normal
145274463760,9.92841911315918,0.014356935396790504,-1.7835501432418823,0.0038941511884331703,-0.1122431829571724,0.006948387715965509,Normal,Normal
145274466195,9.894919395446777,-0.0023928226437419653,-1.407876968383789,0.010613471269607544,-0.06765133142471313,0.008780929259955883,Normal,Normal
145274468630,9.815657615661621,-0.007178467698395252,-1.0558329820632935,0.0038941511884331703,-0.005344913341104984,0.006337540224194527,Normal,Normal
145274471066,9.779765129089355,0.004785645287483931,-0.9314061999320984,-0.0016034740256145597,0.06856760382652283,0.005726693198084831,Normal,Normal
145274473501,9.74387264251709,0.019142581149935722,-1.0007981061935425,0.0051158457063138485,0.12293300777673721,0.0008399150101467967,Normal,Normal
145274475936,9.691230773925781,0.004785645287483931,-1.2376874685287476,-0.0034360159188508987,0.15286453068256378,0.0008399150101467967,Normal,Normal
145274478371,9.71515941619873,-0.02153540402650833,-1.6495521068572998,-0.007101099472492933,0.14248012006282806,-0.0028251686599105597,Normal,Normal
145274480807,9.770194053649902,-0.07896314561367035,-2.104487419128418,-0.0034360159188508987,0.09300149232149124,-0.004046862944960594,Normal,Normal
145274483242,9.784550666809082,-0.10049854964017868,-2.449054002761841,-0.008322793990373611,0.01969982497394085,0.00022906772210262716,Normal,Normal
145274485677,9.774979591369629,-0.11246266216039658,-2.6336004734039307,-0.009544488042593002,-0.060932014137506485,0.002672456670552492,Normal,Normal
145274488112,9.741479873657227,-0.10289137065410614,-2.590529680252075,-0.007711946498602629,-0.1256818175315857,0.006337540224194527,Normal,Normal
145274490547,9.696016311645508,-0.08853443711996078,-2.355733871459961,-0.013209572061896324,-0.15988926589488983,0.005726693198084831,Normal,Normal
145274492982,9.681659698486328,-0.035892341285943985,-2.001596212387085,-0.008933641016483307,-0.15561333298683167,0.002672456670552492,Normal,Normal
145274495418,9.674481391906738,0.009571290574967861,-1.623231053352356,-0.010155336000025272,-0.11590826511383057,-0.0028251686599105597,Normal,Normal
145274497853,9.691230773925781,0.04785645380616188,-1.3549357652664185,-0.008933641016483307,-0.04932591691613197,-0.007711946498602629,Normal,Normal
145274500288,9.72951602935791,0.05503492057323456,-1.201795220375061,-0.0022143214009702206,0.02092151902616024,-0.009544488042593002,Normal,Normal
145274502723,9.748658180236816,0.05024927482008934,-1.2113664150238037,-0.0028251686599105597,0.08383878320455551,-0.012598725035786629,Normal,Normal
145274505159,9.777372360229492,0.02392822690308094,-1.342971682548523,-0.005268557462841272,0.1241547018289566,-0.010766183026134968,Normal,Normal
145274507594,9.774979591369629,0.01196411345154047,-1.572981834411621,0.01122431829571724,0.13453911244869232,-0.0064902519807219505,Normal,Normal
145274510029,9.727123260498047,0.0023928226437419653,-1.7859430313110352,0.002672456670552492,0.11315945535898209,-0.0028251686599105597,Normal,Normal
145274512464,9.669695854187012,0.02871387079358101,-1.9657038450241089,0.002672456670552492,0.07895200699567795,0.0014507622690871358,Normal,Normal
145274514899,9.60508918762207,0.064606212079525,-2.0757737159729004,0.02160872146487236,0.027029991149902344,0.005726693198084831,Normal,Normal
145274517335,9.535696983337402,0.11006984114646912,-2.073380708694458,0.009391776286065578,-0.02244863659143448,0.008780929259955883,Normal,Normal
145274519770,9.499805450439453,0.08374879509210587,-2.025524377822876,0.01122431829571724,-0.05787777900695801,0.009391776286065578,Normal,Normal
145274522205,9.533304214477539,0.04785645380616188,-1.9486548900604248,0.016721943393349648,-0.0859767496585846,0.006337540224194527,Normal,Normal
145274524640,9.60508918762207,0.014356935396790504,-1.831406593322754,-0.0034360159188508987,-0.09086353331804276,0.008780929259955883,Normal,Normal
145274527075,9.679266929626465,-0.02392822690308094,-1.7021942138671875,0.006337540224194527,-0.07681404054164886,0.008170082233846188,Normal,Normal
145274529511,9.758230209350586,-0.031106693670153618,-1.5705889463424683,-0.00038177953683771193,-0.05115845799446106,0.010613471269607544,Normal,Normal
145274531946,9.823135375976562,-0.04785645380616188,-1.470090389251709,-0.016874656081199646,-0.01572931744158268,0.008780929259955883,Normal,Normal
145274534381,9.832706451416016,-0.0526420995593071,-1.410269856452942,-0.008322793990373611,0.02214321307837963,0.007559234742075205,Normal,Normal
145274536816,9.806086540222168,-0.05024927482008934,-1.4174482822418213,-0.018096350133419037,0.05512896552681923,0.0038941511884331703,Normal,Normal
145274539251,9.724730491638184,-0.038285162299871445,-1.477268934249878,-0.022372281178832054,0.07956285774707794,0.00022906772210262716,Normal,Normal
145274541687,9.674481391906738,-0.04546362906694412,-1.6016956567764282,-0.010155336000025272,0.08811471611261368,-0.0028251686599105597,Normal,Normal
145274544122,9.645767211914062,-0.040677983313798904,-1.807478427886963,-0.01626380905508995,0.07345438003540039,-0.008322793990373611,Normal,Normal
145274546557,9.621838569641113,-0.031106693670153618,-1.9992033243179321,-0.007101099472492933,0.03924693539738655,-0.007711946498602629,Normal,Normal
145274548992,9.61944580078125,-0.019142581149935722,-2.1332013607025146,-0.0022143214009702206,-0.004123218823224306,-0.010155336000025272,Normal,Normal
