time_usec,acc_x,acc_y,acc_z,rot_x,rot_y,rot_z,label,type
145631840384,9.765408515930176,-0.12442677468061447,-1.843370795249939,-0.06329904496669769,0.032069481909275055,0.010155336000025272,Normal,Normal
145631842819,9.748658180236816,-0.14117653667926788,-1.8337994813919067,-0.06696412712335587,0.018019994720816612,0.013209572061896324,Normal,Normal
145631845254,9.72951602935791,-0.14835500717163086,-1.7835501432418823,-0.07246175408363342,0.007024743594229221,0.02176143415272236,Normal,Normal
145631847689,9.703194618225098,-0.15553347766399384,-1.6615161895751953,-0.06757497787475586,0.0015271181473508477,0.024815669283270836,Normal,Normal
145631850124,9.645767211914062,-0.19142581522464752,-1.4940186738967896,-0.07185091078281403,0.0015271181473508477,0.027869906276464462,Normal,Normal
145631852559,9.6433744430542,-0.20578274130821228,-1.3525429964065552,-0.07185091078281403,0.014965757727622986,0.027259059250354767,Normal,Normal
145631854994,9.676874160766602,-0.20817556977272034,-1.2472587823867798,-0.06757497787475586,0.025350160896778107,0.027869906276464462,Normal,Normal
145631857429,9.739087104797363,-0.2392822653055191,-1.2137593030929565,-0.06696412712335587,0.03634541109204292,0.02420482225716114,Normal,Normal
145631859864,9.847063064575195,-0.24406790733337402,-1.256830096244812,-0.07001836597919464,0.03817795217037201,0.02176143415272236,Normal,Normal
145631862299,9.954740524291992,-0.27038896083831787,-1.3310075998306274,-0.05657972767949104,0.028404397889971733,0.018096350133419037,Normal,Normal
145631864735,10.026525497436523,-0.2826521694660187,-1.4294124841690063,-0.059023115783929825,0.013744063675403595,0.012598725035786629,Normal,Normal
145631867170,10.115059852600098,-0.26081767678260803,-1.5346965789794922,-0.05596888065338135,-0.005803049076348543,0.008322793990373611,Normal,Normal
145631869605,10.16291618347168,-0.21296121180057526,-1.628016710281372,-0.04497363045811653,-0.025350160896778107,0.0009926267666742206,Normal,Normal
145631872040,10.174880027770996,-0.1339980661869049,-1.6663018465042114,-0.048638712614774704,-0.04306473210453987,-0.0038941511884331703,Normal,Normal
145631874475,10.086345672607422,-0.08853443711996078,-1.6447664499282837,-0.03825430944561958,-0.05100574716925621,-0.009391776286065578,Normal,Normal
145631876910,9.916455268859863,-0.062213387340307236,-1.6040884256362915,-0.04008685052394867,-0.04184303805232048,-0.0130568603053689,Normal,Normal
145631879345,9.705587387084961,-0.09571290761232376,-1.5873386859893799,-0.033978380262851715,-0.0198525357991457,-0.010002624243497849,Normal,Normal
145631881780,9.540482521057129,-0.1459621787071228,-1.6136597394943237,-0.0364217683672905,0.00519220158457756,0.00038177953683771193,Normal,Normal
145631884215,9.468698501586914,-0.18424734473228455,-1.7261223793029785,-0.035200074315071106,0.028404397889971733,0.008322793990373611,Normal,Normal
145631886650,9.502198219299316,-0.20338992774486542,-1.86729896068573,-0.03825430944561958,0.037567105144262314,0.016874656081199646,Normal,Normal
145631889085,9.578767776489258,-0.17946170270442963,-1.953440546989441,-0.041919391602277756,0.041232191026210785,0.027259059250354767,Normal,Normal
145631891520,9.717552185058594,-0.09092725813388824,-2.0279171466827393,-0.04680617153644562,0.03390202298760414,0.032756682485342026,Normal,Normal
145631893956,9.859027862548828,-0.040677983313798904,-2.0207388401031494,-0.04802786558866501,0.02229592576622963,0.03092414326965809,Normal,Normal
145631896391,9.904491424560547,-0.02153540402650833,-1.9486548900604248,-0.05657972767949104,0.008857285603880882,0.02970244735479355,Normal,Normal
145631898826,9.902098655700684,-0.062213387340307236,-1.8266209363937378,-0.05596888065338135,0.0015271181473508477,0.026037365198135376,Normal,Normal
145631901261,9.856635093688965,-0.14835500717163086,-1.6878372430801392,-0.06390989571809769,0.003970507066696882,0.021150587126612663,Normal,Normal
145631903696,9.8207426071167,-0.24885354936122894,-1.5442678928375244,-0.07062921673059464,0.011300674639642239,0.019318044185638428,Normal,Normal
145631906131,9.808479309082031,-0.3233301639556885,-1.4676976203918457,-0.07734853774309158,0.02229592576622963,0.02176143415272236,Normal,Normal
145631908566,9.849455833435059,-0.3400799036026001,-1.4174482822418213,-0.0761268362402916,0.024128466844558716,0.023593975231051445,Normal,Normal
145631911001,9.90688419342041,-0.27756741642951965,-1.3932210206985474,-0.07673768699169159,0.03268032893538475,0.019318044185638428,Normal,Normal
145631913436,9.976275444030762,-0.20099709928035736,-1.4003994464874268,-0.07307260483503342,0.03145863488316536,0.016874656081199646,Normal,Normal
145631915871,10.062417030334473,-0.12921242415905,-1.4629119634628296,-0.06696412712335587,0.025350160896778107,0.007101099472492933,Normal,Normal
145631918306,10.079167366027832,-0.10049854964017868,-1.5251253843307495,-0.06513158977031708,0.011300674639642239,0.00038177953683771193,Normal,Normal
145631920741,10.02413272857666,-0.11485548317432404,-1.5753746032714844,-0.05841226875782013,-0.0009162708884105086,-0.005726693198084831,Normal,Normal
145631923176,9.904491424560547,-0.1579262912273407,-1.596909999847412,-0.051082100719213486,-0.01252236869186163,-0.006948387715965509,Normal,Normal
145631925611,9.810872077941895,-0.20099709928035736,-1.5849459171295166,-0.04558447748422623,-0.015576604753732681,-0.0038941511884331703,Normal,Normal
145631928046,9.724730491638184,-0.2225325107574463,-1.5466607809066772,-0.03825430944561958,-0.018630841746926308,0.005268557462841272,Normal,Normal
145631930481,9.662516593933105,-0.20338992774486542,-1.4940186738967896,-0.03764346241950989,-0.010689826682209969,0.015652960166335106,Normal,Normal
145631932916,9.664909362792969,-0.1818545162677765,-1.4940186738967896,-0.03458922728896141,0.00030542362947016954,0.02176143415272236,Normal,Normal
145631935351,9.7366943359375,-0.15074782073497772,-1.532303810119629,-0.02664821222424507,0.010689826682209969,0.028480753302574158,Normal,Normal
145631937787,9.847063064575195,-0.11964113265275955,-1.6375880241394043,-0.03336753323674202,0.019241688773036003,0.027869906276464462,Normal,Normal
145631940222,9.966704368591309,-0.08853443711996078,-1.7715860605239868,-0.03458922728896141,0.016187451779842377,0.02664821222424507,Normal,Normal
145631942657,10.03131103515625,-0.07657032459974289,-1.89840567111969,-0.033978380262851715,0.010689826682209969,0.021150587126612663,Normal,Normal
145631945092,10.019346237182617,-0.10289137065410614,-1.9752750396728516,-0.040697697550058365,0.00030542362947016954,0.01748550310730934,Normal,Normal
145631947527,9.990633010864258,-0.14117653667926788,-1.994417667388916,-0.04558447748422623,-0.0021379655227065086,0.014431266114115715,Normal,Normal
145631949962,9.918848037719727,-0.17946170270442963,-1.9680966138839722,-0.05657972767949104,-0.008246437646448612,0.012598725035786629,Normal,Normal
145631952397,9.815657615661621,-0.20338992774486542,-1.9007984399795532,-0.06329904496669769,-0.00519220158457756,0.011987877078354359,Normal,Normal
145631954832,9.712766647338867,-0.22971096634864807,-1.8170497417449951,-0.06879667192697525,0.0021379655227065086,0.013209572061896324,Normal,Normal
145631957267,9.660123825073242,-0.22492532432079315,-1.7476578950881958,-0.0755159929394722,0.015576604753732681,0.012598725035786629,Normal,Normal
145631959703,9.650552749633789,-0.21774685382843018,-1.6974085569381714,-0.07673768699169159,0.027793550863862038,0.01382041908800602,Normal,Normal
145631962138,9.688838005065918,-0.23210379481315613,-1.7069798707962036,-0.07246175408363342,0.030847785994410515,0.015042114071547985,Normal,Normal
145631964573,9.724730491638184,-0.2584248483181,-1.7333009243011475,-0.0755159929394722,0.027182703837752342,0.019318044185638428,Normal,Normal
145631967008,9.774979591369629,-0.3089732229709625,-1.750050663948059,-0.07429429888725281,0.019241688773036003,0.02053973823785782,Normal,Normal
145631969443,9.796515464782715,-0.3496512174606323,-1.7404793500900269,-0.07124006003141403,0.00519220158457756,0.024815669283270836,Normal,Normal
145631971878,9.789336204528809,-0.368793785572052,-1.709372639656067,-0.06574243307113647,-0.005803049076348543,0.027869906276464462,Normal,Normal
145631974313,9.873384475708008,-0.35443684458732605,-1.6639090776443481,-0.0626882016658783,-0.014965757727622986,0.029091600328683853,Normal,Normal
145631976748,9.961918830871582,-0.2994019389152527,-1.6208382844924927,-0.05474718660116196,-0.016187451779842377,0.024815669283270836,Normal,Normal
145631979183,10.028918266296387,-0.2105683982372284,-1.6064813137054443,-0.049860406666994095,-0.018630841746926308,0.01626380905508995,Normal,Normal
145631981618,10.05284595489502,-0.13878370821475983,-1.592124342918396,-0.04802786558866501,-0.014965757727622986,0.005268557462841272,Normal,Normal
145631984053,10.012167930603027,-0.09092725813388824,-1.6304094791412354,-0.03458922728896141,-0.006413896102458239,-0.005726693198084831,Normal,Normal
145631986488,9.981060981750488,-0.09092725813388824,-1.7356936931610107,-0.03886515647172928,-0.0009162708884105086,-0.011835165321826935,Normal,Normal
145631988924,9.911669731140137,-0.1459621787071228,-1.8792630434036255,-0.032756682485342026,-0.003359660040587187,-0.012446013279259205,Normal,Normal
145631991358,9.784550666809082,-0.22013968229293823,-2.0303099155426025,-0.03092414326965809,-0.007635590620338917,-0.0051158457063138485,Normal,Normal
145631993793,9.74387264251709,-0.2560320198535919,-2.190629243850708,-0.03825430944561958,-0.014965757727622986,0.0034360159188508987,Normal,Normal
145631996228,9.739087104797363,-0.25363919138908386,-2.2887349128723145,-0.0358109213411808,-0.024128466844558716,0.013209572061896324,Normal,Normal
145631998663,9.707980155944824,-0.19621145725250244,-2.26959228515625,-0.0358109213411808,-0.025961007922887802,0.022372281178832054,Normal,Normal
145632001099,9.724730491638184,-0.0933200865983963,-2.2265214920043945,-0.0364217683672905,-0.020463382825255394,0.026037365198135376,Normal,Normal
145632003534,9.779765129089355,-0.02632104977965355,-2.17627215385437,-0.048638712614774704,-0.011911521665751934,0.02542651630938053,Normal,Normal
145632005969,9.767801284790039,0.0,-2.104487419128418,-0.0492495596408844,-0.004581354558467865,0.02298312820494175,Normal,Normal
145632008404,9.770194053649902,-0.04546362906694412,-2.0542383193969727,-0.05657972767949104,0.010689826682209969,0.02053973823785782,Normal,Normal
145632010839,9.813264846801758,-0.09810572862625122,-2.066202402114868,-0.06085565686225891,0.018019994720816612,0.01748550310730934,Normal,Normal
145632013274,9.8207426071167,-0.16749759018421173,-2.104487419128418,-0.06757497787475586,0.02229592576622963,0.019928891211748123,Normal,Normal
145632015709,9.777372360229492,-0.20578274130821228,-2.0853450298309326,-0.06879667192697525,0.02107422985136509,0.02053973823785782,Normal,Normal
145632018144,9.763015747070312,-0.2105683982372284,-2.080559253692627,-0.07734853774309158,0.01435491070151329,0.01748550310730934,Normal,Normal
145632020579,9.7366943359375,-0.19381862878799438,-2.032702922821045,-0.0749051421880722,0.015576604753732681,0.016874656081199646,Normal,Normal
145632023014,9.662516593933105,-0.20817556977272034,-1.970489501953125,-0.07368344813585281,0.007635590620338917,0.016874656081199646,Normal,Normal
145632025449,9.566803932189941,-0.22971096634864807,-1.9175482988357544,-0.07307260483503342,0.008857285603880882,0.01626380905508995,Normal,Normal
145632027884,9.514162063598633,-0.2922234535217285,-1.89840567111969,-0.07185091078281403,0.004581354558467865,0.01748550310730934,Normal,Normal
145632030319,9.523733139038086,-0.33768710494041443,-1.9414764642715454,-0.0626882016658783,0.0015271181473508477,0.019928891211748123,Normal,Normal
145632032754,9.540482521057129,-0.3927220106124878,-1.9824535846710205,-0.060244809836149216,-0.010078979656100273,0.02176143415272236,Normal,Normal
145632035189,9.607481956481934,-0.4214358925819397,-2.0159530639648438,-0.05413633957505226,-0.019241688773036003,0.02298312820494175,Normal,Normal
145632037624,9.739087104797363,-0.43100717663764954,-2.0470597743988037,-0.0492495596408844,-0.033291175961494446,0.02420482225716114,Normal,Normal
145632040060,9.856635093688965,-0.38793638348579407,-2.032702922821045,-0.04741701856255531,-0.040010496973991394,0.02420482225716114,Normal,Normal
145632042495,9.92841911315918,-0.34725838899612427,-1.9896320104599,-0.044362783432006836,-0.04611896723508835,0.019928891211748123,Normal,Normal
145632044930,9.961918830871582,-0.3089732229709625,-1.9175482988357544,-0.04130854457616806,-0.040010496973991394,0.014431266114115715,Normal,Normal
145632047365,9.981060981750488,-0.26560330390930176,-1.872084617614746,-0.03825430944561958,-0.02351761981844902,0.005879404954612255,Normal,Normal
145632049800,9.961918830871582,-0.2584248483181,-1.8649061918258667,-0.0358109213411808,-0.007635590620338917,-0.0008399150101467967,Normal,Normal
145632052235,9.880562782287598,-0.26081767678260803,-1.8577276468276978,-0.0358109213411808,0.008246437646448612,-0.004504998680204153,Normal,Normal
145632054670,9.813264846801758,-0.27038896083831787,-1.8912272453308105,-0.0364217683672905,0.02473931387066841,-0.006337540224194527,Normal,Normal
145632057105,9.789336204528809,-0.2632105052471161,-1.994417667388916,-0.04130854457616806,0.030847785994410515,-0.005726693198084831,Normal,Normal
145632059540,9.7366943359375,-0.2392822653055191,-2.087737798690796,-0.04130854457616806,0.02901524491608143,-0.0014507622690871358,Normal,Normal
145632061975,9.686445236206055,-0.20817556977272034,-2.166700839996338,-0.04802786558866501,0.018019994720816612,0.0028251686599105597,Normal,Normal
145632064410,9.688838005065918,-0.16031911969184875,-2.245664119720459,-0.04741701856255531,0.00519220158457756,0.005879404954612255,Normal,Normal
145632066845,9.712766647338867,-0.09810572862625122,-2.3198416233062744,-0.05230379477143288,-0.014965757727622986,0.007101099472492933,Normal,Normal
145632069281,9.662516593933105,-0.11964113265275955,-2.3222343921661377,-0.05047125369310379,-0.03695625811815262,0.009544488042593002,Normal,Normal
145632071717,9.600303649902344,-0.15314064919948578,-2.3030917644500732,-0.059023115783929825,-0.04489727318286896,0.013209572061896324,Normal,Normal
145632074152,9.557232856750488,-0.22013968229293823,-2.30069899559021,-0.0626882016658783,-0.04978405311703682,0.02053973823785782,Normal,Normal
145632076587,9.562018394470215,-0.275174617767334,-2.3054845333099365,-0.0620773509144783,-0.05100574716925621,0.027869906276464462,Normal,Normal
145632079022,9.655338287353516,-0.3233301639556885,-2.334198474884033,-0.07001836597919464,-0.04489727318286896,0.035200074315071106,Normal,Normal
145632081457,9.741479873657227,-0.3400799036026001,-2.338984251022339,-0.06940752267837524,-0.04184303805232048,0.033978380262851715,Normal,Normal
145632083892,9.854242324829102,-0.3281157910823822,-2.358126640319824,-0.06452073901891708,-0.033291175961494446,0.03214583545923233,Normal,Normal
145632086327,9.964311599731445,-0.3233301639556885,-2.365305185317993,-0.06940752267837524,-0.025961007922887802,0.026037365198135376,Normal,Normal
145632088762,9.983454704284668,-0.31375887989997864,-2.2911276817321777,-0.06390989571809769,-0.016187451779842377,0.019318044185638428,Normal,Normal
145632091197,9.897313117980957,-0.2946162819862366,-2.197807550430298,-0.0620773509144783,-0.0015271181473508477,0.009544488042593002,Normal,Normal
145632093632,9.796515464782715,-0.2922234535217285,-2.1308085918426514,-0.06574243307113647,0.019241688773036003,-0.00022906772210262716,Normal,Normal
145632096068,9.657731056213379,-0.27756741642951965,-2.0614166259765625,-0.049860406666994095,0.03268032893538475,-0.007559234742075205,Normal,Normal
145632098503,9.490233421325684,-0.25363919138908386,-2.025524377822876,-0.05413633957505226,0.04978405311703682,-0.014278554357588291,Normal,Normal
145632100938,9.3490571975708,-0.24406790733337402,-2.0542383193969727,-0.04680617153644562,0.05344913527369499,-0.014889402315020561,Normal,Normal
145632103373,9.294022560119629,-0.22492532432079315,-2.1786649227142334,-0.03886515647172928,0.04611896723508835,-0.012446013279259205,Normal,Normal
145632105808,9.267701148986816,-0.20099709928035736,-2.3126630783081055,-0.04130854457616806,0.0198525357991457,-0.010613471269607544,Normal,Normal
145632108243,9.28445053100586,-0.20817556977272034,-2.4466612339019775,-0.03092414326965809,-0.013133215717971325,-0.00022906772210262716,Normal,Normal
145632110677,9.310771942138672,-0.20338992774486542,-2.5160529613494873,-0.030313294380903244,-0.047951508313417435,0.008322793990373611,Normal,Normal
145632113112,9.39452075958252,-0.19621145725250244,-2.533101797103882,-0.039476003497838974,-0.07543963938951492,0.019318044185638428,Normal,Normal
145632115547,9.499805450439453,-0.1746760457754135,-2.4705893993377686,-0.029091600328683853,-0.09559759497642517,0.02542651630938053,Normal,Normal
145632117982,9.600303649902344,-0.1579262912273407,-2.3509483337402344,-0.0364217683672905,-0.09620844572782516,0.027869906276464462,Normal,Normal
145632120418,9.672088623046875,-0.16749759018421173,-2.2241287231445312,-0.041919391602277756,-0.08276980370283127,0.03092414326965809,Normal,Normal
145632122853,9.727123260498047,-0.1986042857170105,-2.149951219558716,-0.043141089379787445,-0.05528167635202408,0.030313294380903244,Normal,Normal
145632125288,9.782157897949219,-0.2392822653055191,-2.1164517402648926,-0.05291464552283287,-0.022906772792339325,0.027259059250354767,Normal,Normal
145632127723,9.830313682556152,-0.29700911045074463,-2.152343988418579,-0.05841226875782013,0.010689826682209969,0.021150587126612663,Normal,Normal
145632130158,9.878170013427734,-0.3616153299808502,-2.2743778228759766,-0.06574243307113647,0.030847785994410515,0.02053973823785782,Normal,Normal
145632132593,9.885348320007324,-0.4214358925819397,-2.410768747329712,-0.07124006003141403,0.03817795217037201,0.01748550310730934,Normal,Normal
145632135028,9.810872077941895,-0.4621138870716095,-2.513660192489624,-0.07429429888725281,0.033291175961494446,0.013209572061896324,Normal,Normal
145632137463,9.772586822509766,-0.4621138870716095,-2.588136672973633,-0.07857023179531097,0.02473931387066841,0.005879404954612255,Normal,Normal
145632139898,9.772586822509766,-0.4381856322288513,-2.597707986831665,-0.08345700800418854,0.003970507066696882,0.0009926267666742206,Normal,Normal
145632142333,9.719944953918457,-0.4046861231327057,-2.533101797103882,-0.0749051421880722,-0.014965757727622986,-0.004504998680204153,Normal,Normal
145632144768,9.676874160766602,-0.3616153299808502,-2.403590440750122,-0.07062921673059464,-0.032069481909275055,-0.008780929259955883,Normal,Normal
145632147203,9.59073257446289,-0.3041875660419464,-2.1954147815704346,-0.06879667192697525,-0.03695625811815262,-0.014889402315020561,Normal,Normal
145632149639,9.51176929473877,-0.2632105052471161,-2.0063817501068115,-0.05657972767949104,-0.030847785994410515,-0.017332790419459343,Normal,Normal
145632152074,9.516554832458496,-0.24406790733337402,-1.8912272453308105,-0.04680617153644562,-0.018630841746926308,-0.016111096367239952,Normal,Normal
145632154509,9.49501895904541,-0.26081767678260803,-1.800299882888794,-0.03886515647172928,-0.010689826682209969,-0.0130568603053689,Normal,Normal
145632156944,9.475876808166504,-0.27038896083831787,-1.77397882938385,-0.033978380262851715,0.0015271181473508477,-0.002061609411612153,Normal,Normal
145632159379,9.533304214477539,-0.2826521694660187,-1.812264084815979,-0.02420482225716114,0.010689826682209969,0.0064902519807219505,Normal,Normal
145632161814,9.583553314208984,-0.24167509377002716,-1.896012783050537,-0.02053973823785782,0.010078979656100273,0.013209572061896324,Normal,Normal
145632164249,9.607481956481934,-0.24885354936122894,-2.0063817501068115,-0.02176143415272236,0.008857285603880882,0.02053973823785782,Normal,Normal
145632166684,9.614660263061523,-0.23688943684101105,-2.1403799057006836,-0.01748550310730934,0.0015271181473508477,0.02176143415272236,Normal,Normal
145632169119,9.593125343322754,-0.24646073579788208,-2.2337000370025635,-0.03092414326965809,-0.004581354558467865,0.023593975231051445,Normal,Normal
145632171555,9.540482521057129,-0.275174617767334,-2.3222343921661377,-0.033978380262851715,-0.011300674639642239,0.019928891211748123,Normal,Normal
145632173990,9.528518676757812,-0.2946162819862366,-2.4227328300476074,-0.04130854457616806,-0.018019994720816612,0.013209572061896324,Normal,Normal
145632176425,9.552447319030762,-0.28504499793052673,-2.520838737487793,-0.05535803362727165,-0.02473931387066841,0.005268557462841272,Normal,Normal
145632178860,9.562018394470215,-0.2799602448940277,-2.573779821395874,-0.05413633957505226,-0.033291175961494446,-0.002672456670552492,Normal,Normal
145632181295,9.607481956481934,-0.27038896083831787,-2.588136672973633,-0.06513158977031708,-0.04367557913064957,-0.01122431829571724,Normal,Normal
145632183730,9.657731056213379,-0.27038896083831787,-2.535494804382324,-0.0761268362402916,-0.04611896723508835,-0.01794363744556904,Normal,Normal
145632186165,9.681659698486328,-0.23688943684101105,-2.441875457763672,-0.07246175408363342,-0.04978405311703682,-0.019776180386543274,Normal,Normal
145632188600,9.657731056213379,-0.22013968229293823,-2.293520450592041,-0.07857023179531097,-0.041232191026210785,-0.02283041551709175,Normal,Normal
145632191036,9.557232856750488,-0.20099709928035736,-2.0685951709747314,-0.0755159929394722,-0.025350160896778107,-0.01916533336043358,Normal,Normal
145632193471,9.447162628173828,-0.20099709928035736,-1.8888343572616577,-0.06940752267837524,0.00030542362947016954,-0.01794363744556904,Normal,Normal
145632195906,9.37298583984375,-0.20099709928035736,-1.781157374382019,-0.06635328382253647,0.028404397889971733,-0.010002624243497849,Normal,Normal
145632198341,9.325128555297852,-0.2512463629245758,-1.7620147466659546,-0.05719057470560074,0.04856235533952713,-0.0008399150101467967,Normal,Normal
145632200776,9.322735786437988,-0.2946162819862366,-1.8098711967468262,-0.05047125369310379,0.055892523378133774,0.010155336000025272,Normal,Normal
145632203211,9.344271659851074,-0.33529427647590637,-1.8936200141906738,-0.04619532451033592,0.0522274412214756,0.021150587126612663,Normal,Normal
145632205646,9.50459098815918,-0.3568296730518341,-2.0039889812469482,-0.041919391602277756,0.03573456406593323,0.024815669283270836,Normal,Normal
145632208081,9.655338287353516,-0.3089732229709625,-2.104487419128418,-0.03825430944561958,0.003970507066696882,0.027259059250354767,Normal,Normal
145632210516,9.779765129089355,-0.27756741642951965,-2.173879384994507,-0.033978380262851715,-0.028404397889971733,0.02176143415272236,Normal,Normal
145632212951,9.856635093688965,-0.27756741642951965,-2.1930220127105713,-0.03825430944561958,-0.05405998229980469,0.010155336000025272,Normal,Normal
145632215387,9.854242324829102,-0.3089732229709625,-2.17627215385437,-0.0358109213411808,-0.06749862432479858,0.00038177953683771193,Normal,Normal
145632217822,9.810872077941895,-0.3448655605316162,-2.1547367572784424,-0.035200074315071106,-0.07116370648145676,-0.005726693198084831,Normal,Normal
145632220257,9.772586822509766,-0.3807578980922699,-2.169093608856201,-0.043141089379787445,-0.06444438546895981,-0.0130568603053689,Normal,Normal
145632222692,9.74387264251709,-0.3568296730518341,-2.1547367572784424,-0.04680617153644562,-0.05100574716925621,-0.020997874438762665,Normal,Normal
145632225127,9.7366943359375,-0.3161516785621643,-2.1882362365722656,-0.044362783432006836,-0.028404397889971733,-0.02283041551709175,Normal,Normal
145632227562,9.770194053649902,-0.22492532432079315,-2.2432711124420166,-0.05230379477143288,-0.01435491070151329,-0.03077143058180809,Normal,Normal
145632229996,9.810872077941895,-0.11964113265275955,-2.293520450592041,-0.048638712614774704,-0.002748812548816204,-0.03199312463402748,Normal,Normal
145632232431,9.801301002502441,-0.05503492057323456,-2.365305185317993,-0.049860406666994095,-0.00030542362947016954,-0.032603971660137177,Normal,Normal
145632234866,9.7366943359375,-0.04307080805301666,-2.3916261196136475,-0.053525492548942566,0.003970507066696882,-0.031382277607917786,Normal,Normal
145632237301,9.578767776489258,-0.07178468257188797,-2.2983062267303467,-0.053525492548942566,0.003359660040587187,-0.02038702741265297,Normal,Normal
145632239736,9.406484603881836,-0.12921242415905,-2.166700839996338,-0.05230379477143288,0.016187451779842377,-0.010002624243497849,Normal,Normal
145632242172,9.274879455566406,-0.17228323221206665,-2.042274236679077,-0.0492495596408844,0.027182703837752342,0.005879404954612255,Normal,Normal
145632244607,9.18843936920166,-0.20338992774486542,-1.9175482988357544,-0.0492495596408844,0.04367557913064957,0.018096350133419037,Normal,Normal
145632247042,9.176474571228027,-0.19381862878799438,-1.831406593322754,-0.049860406666994095,0.05344913527369499,0.027869906276464462,Normal,Normal
145632249477,9.313164710998535,-0.17706887423992157,-1.8146568536758423,-0.05169294774532318,0.05894676223397255,0.031534988433122635,Normal,Normal
145632251912,9.490233421325684,-0.17228323221206665,-1.8290138244628906,-0.05230379477143288,0.0528382882475853,0.029091600328683853,Normal,Normal
145632254347,9.652945518493652,-0.16749759018421173,-1.8457635641098022,-0.05841226875782013,0.03268032893538475,0.022372281178832054,Normal,Normal
145632256782,9.796515464782715,-0.17706887423992157,-1.8290138244628906,-0.057801421731710434,0.01435491070151329,0.01382041908800602,Normal,Normal
145632259217,9.878170013427734,-0.2225325107574463,-1.7979071140289307,-0.0620773509144783,-0.011911521665751934,0.005879404954612255,Normal,Normal
145632261652,9.851848602294922,-0.2727817893028259,-1.7285152673721313,-0.05413633957505226,-0.027182703837752342,-0.002672456670552492,Normal,Normal
145632264087,9.763015747070312,-0.3113660514354706,-1.6112669706344604,-0.05596888065338135,-0.03145863488316536,-0.012446013279259205,Normal,Normal
145632266522,9.664909362792969,-0.32572299242019653,-1.505982756614685,-0.059023115783929825,-0.024128466844558716,-0.016721943393349648,Normal,Normal
145632268957,9.631410598754883,-0.2922234535217285,-1.4533406496047974,-0.05169294774532318,-0.013133215717971325,-0.02038702741265297,Normal,Normal
145632271392,9.617053031921387,-0.23449662327766418,-1.4605190753936768,-0.060244809836149216,-0.00030542362947016954,-0.02160872146487236,Normal,Normal
145632273827,9.669695854187012,-0.18424734473228455,-1.532303810119629,-0.05169294774532318,0.006413896102458239,-0.02283041551709175,Normal,Normal
145632276263,9.664909362792969,-0.14356936514377594,-1.6399807929992676,-0.04558447748422623,0.007024743594229221,-0.020997874438762665,Normal,Normal
145632278698,9.617053031921387,-0.14117653667926788,-1.7356936931610107,-0.04375193640589714,0.005803049076348543,-0.018554486334323883,Normal,Normal
145632281133,9.62901782989502,-0.15553347766399384,-1.8218353986740112,-0.033978380262851715,-0.0009162708884105086,-0.013667707331478596,Normal,Normal
145632283568,9.638588905334473,-0.17706887423992157,-1.8792630434036255,-0.033978380262851715,-0.010078979656100273,-0.0032833039294928312,Normal,Normal
145632286003,9.600303649902344,-0.19621145725250244,-1.8481563329696655,-0.027869906276464462,-0.013744063675403595,0.004657710436731577,Normal,Normal
145632288438,9.547661781311035,-0.1579262912273407,-1.781157374382019,-0.027869906276464462,-0.010689826682209969,0.010766183026134968,Normal,Normal
145632290873,9.528518676757812,-0.12681959569454193,-1.6854444742202759,-0.03336753323674202,0.00519220158457756,0.01382041908800602,Normal,Normal
145632293308,9.542876243591309,-0.08374879509210587,-1.628016710281372,-0.03764346241950989,0.02229592576622963,0.010766183026134968,Normal,Normal
145632295743,9.631410598754883,-0.08374879509210587,-1.695015788078308,-0.040697697550058365,0.03268032893538475,0.007101099472492933,Normal,Normal
145632298178,9.739087104797363,-0.12921242415905,-1.831406593322754,-0.040697697550058365,0.028404397889971733,0.005268557462841272,Normal,Normal
145632300613,9.849455833435059,-0.20338992774486542,-2.001596212387085,-0.05169294774532318,0.016187451779842377,0.00038177953683771193,Normal,Normal
145632303048,10.019346237182617,-0.26081767678260803,-2.1619153022766113,-0.048638712614774704,-0.008246437646448612,0.0028251686599105597,Normal,Normal
145632305484,10.091131210327148,-0.3089732229709625,-2.2097716331481934,-0.060244809836149216,-0.03451287001371384,0.004657710436731577,Normal,Normal
145632307919,10.110274314880371,-0.31375887989997864,-2.1332013607025146,-0.0620773509144783,-0.046729814261198044,0.0028251686599105597,Normal,Normal
145632310354,10.062417030334473,-0.28504499793052673,-1.9438693523406982,-0.06574243307113647,-0.049173206090927124,0.0034360159188508987,Normal,Normal
145632312789,9.9140625,-0.23688943684101105,-1.6495521068572998,-0.06818582862615585,-0.028404397889971733,-0.0008399150101467967,Normal,Normal
145632315224,9.7366943359375,-0.1818545162677765,-1.3573286533355713,-0.06818582862615585,0.011911521665751934,-0.006948387715965509,Normal,Normal
145632317659,9.595518112182617,-0.11724831163883209,-1.1874382495880127,-0.06085565686225891,0.06139015033841133,-0.013667707331478596,Normal,Normal
145632320094,9.51894760131836,-0.09571290761232376,-1.1754741668701172,-0.06329904496669769,0.10231691598892212,-0.019776180386543274,Normal,Normal
145632322529,9.483055114746094,-0.11006984114646912,-1.3142578601837158,-0.05047125369310379,0.12247487902641296,-0.024662958458065987,Normal,Normal
145632324964,9.533304214477539,-0.15074782073497772,-1.5586248636245728,-0.04375193640589714,0.11147962510585785,-0.020997874438762665,Normal,Normal
145632327399,9.547661781311035,-0.17946170270442963,-1.7955143451690674,-0.040697697550058365,0.07482878863811493,-0.015500249341130257,Normal,Normal
145632329834,9.557232856750488,-0.20099709928035736,-1.927119493484497,-0.040697697550058365,0.02473931387066841,-0.0014507622690871358,Normal,Normal
145632332269,9.60508918762207,-0.1818545162677765,-1.9486548900604248,-0.032756682485342026,-0.02473931387066841,0.007101099472492933,Normal,Normal
145632334704,9.566803932189941,-0.15074782073497772,-1.8218353986740112,-0.03214583545923233,-0.06200099736452103,0.013209572061896324,Normal,Normal
145632337140,9.483055114746094,-0.14835500717163086,-1.5849459171295166,-0.030313294380903244,-0.07177454978227615,0.01748550310730934,Normal,Normal
145632339575,9.413662910461426,-0.1459621787071228,-1.3668999671936035,-0.03092414326965809,-0.055892523378133774,0.018707197159528732,Normal,Normal
145632342010,9.435198783874512,-0.16510476171970367,-1.2376874685287476,-0.03825430944561958,-0.0198525357991457,0.01626380905508995,Normal,Normal
145632344445,9.569196701049805,-0.16031911969184875,-1.2903295755386353,-0.03458922728896141,0.010689826682209969,0.010766183026134968,Normal,Normal
145632346880,9.856635093688965,-0.16031911969184875,-1.5418751239776611,-0.040697697550058365,0.03023693896830082,0.0064902519807219505,Normal,Normal
145632349315,10.191629409790039,-0.1459621787071228,-1.872084617614746,-0.04619532451033592,0.02107422985136509,0.0016034740256145597,Normal,Normal
145632351750,10.469496726989746,-0.14356936514377594,-2.181057929992676,-0.0492495596408844,-0.005803049076348543,-0.006337540224194527,Normal,Normal
145632354185,10.625029563903809,-0.14835500717163086,-2.3437697887420654,-0.05657972767949104,-0.04306473210453987,-0.007559234742075205,Normal,Normal
145632356620,10.526924133300781,-0.14117653667926788,-2.2432711124420166,-0.05841226875782013,-0.06322269141674042,-0.010002624243497849,Normal,Normal
145632359055,10.237093925476074,-0.11964113265275955,-1.934298038482666,-0.06696412712335587,-0.05344913527369499,-0.014889402315020561,Normal,Normal
145632361491,9.823135375976562,-0.0933200865983963,-1.505982756614685,-0.060244809836149216,-0.011911521665751934,-0.015500249341130257,Normal,Normal
145632363926,9.413662910461426,-0.031106693670153618,-1.134796142578125,-0.05596888065338135,0.055892523378133774,-0.015500249341130257,Normal,Normal
145632366361,9.128618240356445,0.02632104977965355,-0.9337990283966064,-0.05657972767949104,0.12552911043167114,-0.016111096367239952,Normal,Normal
145632368796,9.030512809753418,0.09810572862625122,-0.9912267923355103,-0.05291464552283287,0.17928366363048553,-0.014889402315020561,Normal,Normal
145632371231,9.116654396057129,0.09092725813388824,-1.2975081205368042,-0.04680617153644562,0.18966807425022125,-0.012446013279259205,Normal,Normal
145632373666,9.329915046691895,0.040677983313798904,-1.7021942138671875,-0.0364217683672905,0.15240639448165894,-0.0038941511884331703,Normal,Normal
145632376101,9.617053031921387,0.009571290574967861,-2.090130567550659,-0.035200074315071106,0.07055285573005676,0.004657710436731577,Normal,Normal
145632378536,9.849455833435059,-0.035892341285943985,-2.283949136734009,-0.04008685052394867,-0.025961007922887802,0.018707197159528732,Normal,Normal
145632380971,10.012167930603027,-0.07657032459974289,-2.2169501781463623,-0.03092414326965809,-0.11147962510585785,0.027259059250354767,Normal,Normal
145632383406,9.990633010864258,-0.07896314561367035,-1.8529419898986816,-0.03886515647172928,-0.16217994689941406,0.033978380262851715,Normal,Normal
145632385841,9.835099220275879,-0.08853443711996078,-1.3405789136886597,-0.03825430944561958,-0.15362808108329773,0.03336753323674202,Normal,Normal
145632388276,9.652945518493652,-0.0526420995593071,-0.8859425783157349,-0.04008685052394867,-0.09743013978004456,0.03214583545923233,Normal,Normal
145632390711,9.535696983337402,-0.0526420995593071,-0.6248258352279663,-0.044362783432006836,-0.007635590620338917,0.022372281178832054,Normal,Normal
145632393147,9.60508918762207,-0.10049854964017868,-0.7085745930671692,-0.048638712614774704,0.07971556484699249,0.012598725035786629,Normal,Normal
145632395582,9.803693771362305,-0.16510476171970367,-1.1084750890731812,-0.05230379477143288,0.13347013294696808,0.0022143214009702206,Normal,Normal
145632398017,10.071989059448242,-0.2392822653055191,-1.678265929222107,-0.053525492548942566,0.13774605095386505,-0.002061609411612153,Normal,Normal
145632400452,10.289735794067383,-0.28983065485954285,-2.2121646404266357,-0.05963396281003952,0.09804098308086395,-0.006948387715965509,Normal,Normal
145632402887,10.395318984985352,-0.27038896083831787,-2.5474588871002197,-0.06329904496669769,0.03268032893538475,-0.008780929259955883,Normal,Normal
145632405322,10.318449020385742,-0.1746760457754135,-2.5450658798217773,-0.05657972767949104,-0.038788799196481705,-0.01122431829571724,Normal,Normal
145632407757,10.028918266296387,-0.07657032459974289,-2.1930220127105713,-0.05719057470560074,-0.07421794533729553,-0.014889402315020561,Normal,Normal
145632410192,9.617053031921387,0.03349951654672623,-1.6423736810684204,-0.057801421731710434,-0.06933116167783737,-0.017332790419459343,Normal,Normal
145632412627,9.20279598236084,0.07178468257188797,-1.0654042959213257,-0.04497363045811653,-0.022906772792339325,-0.019776180386543274,Normal,Normal
145632415062,8.874979019165039,0.064606212079525,-0.6678966283798218,-0.04497363045811653,0.047951508313417435,-0.019776180386543274,Normal,Normal
145632417497,8.764909744262695,0.07657032459974289,-0.5602195858955383,-0.03825430944561958,0.1175880953669548,-0.012446013279259205,Normal,Normal
145632419932,8.95394229888916,0.035892341285943985,-0.7827520966529846,-0.02542651630938053,0.15546062588691711,-0.0032833039294928312,Normal,Normal
145632422368,9.368199348449707,-0.009571290574967861,-1.252044439315796,-0.02970244735479355,0.1426328420639038,0.009544488042593002,Normal,Normal
145632424803,9.851848602294922,-0.05742774158716202,-1.7356936931610107,-0.023593975231051445,0.07727217674255371,0.022372281178832054,Normal,Normal
145632427238,10.268199920654297,-0.05503492057323456,-2.087737798690796,-0.029091600328683853,-0.010078979656100273,0.0358109213411808,Normal,Normal
145632429673,10.517353057861328,-0.05503492057323456,-2.1308085918426514,-0.027869906276464462,-0.09437590092420578,0.040697697550058365,Normal,Normal
145632432108,10.467103958129883,-0.02632104977965355,-1.86729896068573,-0.039476003497838974,-0.144465371966362,0.04253023862838745,Normal,Normal
145632434543,10.189236640930176,-0.031106693670153618,-1.3860424757003784,-0.033978380262851715,-0.13835690915584564,0.03703261539340019,Normal,Normal
145632436978,9.873384475708008,-0.05503492057323456,-0.9218349456787109,-0.04130854457616806,-0.08399149775505066,0.027259059250354767,Normal,Normal
145632439413,9.554840087890625,-0.08853443711996078,-0.5961119532585144,-0.05230379477143288,0.013133215717971325,0.015042114071547985,Normal,Normal
145632441848,9.384949684143066,-0.11246266216039658,-0.5817549824714661,-0.05169294774532318,0.10292776674032211,0.0016034740256145597,Normal,Normal
145632444283,9.451948165893555,-0.11246266216039658,-0.9505487680435181,-0.05596888065338135,0.16401249170303345,-0.009391776286065578,Normal,Normal
145632446719,9.669695854187012,-0.11006984114646912,-1.537089467048645,-0.06452073901891708,0.17378604412078857,-0.01794363744556904,Normal,Normal
145632449154,9.92124080657959,-0.11964113265275955,-2.166700839996338,-0.060244809836149216,0.12369657307863235,-0.020997874438762665,Normal,Normal
145632451589,10.105487823486328,-0.1339980661869049,-2.6192433834075928,-0.06390989571809769,0.03390202298760414,-0.02038702741265297,Normal,Normal
145632454024,10.186843872070312,-0.11006984114646912,-2.7723841667175293,-0.05841226875782013,-0.06200099736452103,-0.017332790419459343,Normal,Normal
145632456459,10.095916748046875,-0.04307080805301666,-2.549851655960083,-0.05413633957505226,-0.144465371966362,-0.008780929259955883,Normal,Normal
145632458894,9.842277526855469,0.007178467698395252,-1.9992033243179321,-0.04741701856255531,-0.1707318127155304,-0.0051158457063138485,Normal,Normal
145632461329,9.48784065246582,0.07657032459974289,-1.2783654928207397,-0.040697697550058365,-0.13713520765304565,0.0009926267666742206,Normal,Normal
145632463764,9.214759826660156,0.13878370821475983,-0.6631109714508057,-0.03458922728896141,-0.04978405311703682,0.004046862944960594,Normal,Normal
145632466199,9.140582084655762,0.15553347766399384,-0.34247273206710815,-0.031534988433122635,0.05650337040424347,0.004657710436731577,Normal,Normal
145632468634,9.241081237792969,0.17706887423992157,-0.3735794425010681,-0.019928891211748123,0.14690876007080078,0.009544488042593002,Normal,Normal
145632471069,9.49501895904541,0.17706887423992157,-0.6870391964912415,-0.026037365198135376,0.19455485045909882,0.011987877078354359,Normal,Normal
145632473504,9.842277526855469,0.1052841991186142,-1.2137593030929565,-0.01748550310730934,0.19272230565547943,0.019318044185638428,Normal,Normal
145632475939,10.150951385498047,0.009571290574967861,-1.7428722381591797,-0.019318044185638428,0.13408097624778748,0.024815669283270836,Normal,Normal
145632478374,10.284950256347656,-0.04546362906694412,-2.073380708694458,-0.027259059250354767,0.0522274412214756,0.030313294380903244,Normal,Normal
145632480810,10.284950256347656,-0.1052841991186142,-2.1236300468444824,-0.035200074315071106,-0.037567105144262314,0.035200074315071106,Normal,Normal
145632483245,10.12463092803955,-0.11246266216039658,-1.9007984399795532,-0.03886515647172928,-0.09498675167560577,0.033978380262851715,Normal,Normal
145632485680,9.786943435668945,-0.11724831163883209,-1.4820544719696045,-0.048638712614774704,-0.10842538625001907,0.03214583545923233,Normal,Normal
145632488115,9.492626190185547,-0.11246266216039658,-1.043868899345398,-0.05719057470560074,-0.07299624383449554,0.02053973823785782,Normal,Normal
145632490550,9.317950248718262,-0.07417750358581543,-0.768395185470581,-0.0626882016658783,-0.014965757727622986,0.010155336000025272,Normal,Normal
145632492985,9.37059211730957,-0.059820566326379776,-0.7564310431480408,-0.06452073901891708,0.04428642615675926,-0.002061609411612153,Normal,Normal
145632495420,9.59073257446289,-0.062213387340307236,-1.0007981061935425,-0.06390989571809769,0.0778830274939537,-0.010613471269607544,Normal,Normal
145632497855,9.859027862548828,-0.07657032459974289,-1.3812568187713623,-0.07124006003141403,0.07666133344173431,-0.015500249341130257,Normal,Normal
145632500290,10.100702285766602,-0.09571290761232376,-1.7189439535140991,-0.060244809836149216,0.042453885078430176,-0.016721943393349648,Normal,Normal
145632502725,10.296914100646973,-0.07896314561367035,-1.9752750396728516,-0.05841226875782013,-0.01435491070151329,-0.016721943393349648,Normal,Normal
145632505160,10.347163200378418,-0.040677983313798904,-2.0398812294006348,-0.053525492548942566,-0.07116370648145676,-0.0130568603053689,Normal,Normal
145632507595,10.215558052062988,0.02153540402650833,-1.8385851383209229,-0.04497363045811653,-0.10659284889698029,-0.006948387715965509,Normal,Normal
145632510030,9.954740524291992,0.062213387340307236,-1.4581263065338135,-0.03703261539340019,-0.10353861004114151,0.00038177953683771193,Normal,Normal
145632512466,9.621838569641113,0.08374879509210587,-1.017547845840454,-0.032756682485342026,-0.06139015033841133,0.008322793990373611,Normal,Normal
145632514901,9.286844253540039,0.04785645380616188,-0.6367899179458618,-0.015652960166335106,0.01252236869186163,0.011987877078354359,Normal,Normal
145632517336,9.142974853515625,0.016749758273363113,-0.5315057039260864,-0.014431266114115715,0.091932512819767,0.02053973823785782,Normal,Normal
145632519771,9.174081802368164,-0.009571290574967861,-0.675075113773346,-0.019318044185638428,0.15240639448165894,0.027259059250354767,Normal,Normal
145632522206,9.308379173278809,-0.038285162299871445,-1.0319048166275024,-0.008933641016483307,0.1719534993171692,0.030313294380903244,Normal,Normal
145632524641,9.588339805603027,-0.040677983313798904,-1.5275181531906128,-0.022372281178832054,0.144465371966362,0.033978380262851715,Normal,Normal
145632527076,9.923633575439453,-0.014356935396790504,-2.001596212387085,-0.02298312820494175,0.07727217674255371,0.031534988433122635,Normal,Normal
145632529511,10.179665565490723,-0.004785645287483931,-2.26959228515625,-0.022372281178832054,-0.016798298805952072,0.02542651630938053,Normal,Normal
145632531946,10.282557487487793,0.009571290574967861,-2.324627161026001,-0.04619532451033592,-0.09926267713308334,0.016874656081199646,Normal,Normal
145632534381,10.258628845214844,0.02871387079358101,-2.118844509124756,-0.03703261539340019,-0.16340164840221405,0.010155336000025272,Normal,Normal
145632536816,10.062417030334473,0.0023928226437419653,-1.6471593379974365,-0.04680617153644562,-0.1719534993171692,0.0028251686599105597,Normal,Normal
145632539251,9.784550666809082,-0.035892341285943985,-1.1491531133651733,-0.05841226875782013,-0.13469181954860687,-0.0008399150101467967,Normal,Normal
145632541687,9.557232856750488,-0.040677983313798904,-0.7253243923187256,-0.05535803362727165,-0.06016845628619194,-0.004504998680204153,Normal,Normal
145632544122,9.396913528442383,-0.01196411345154047,-0.5099703073501587,-0.06635328382253647,0.03390202298760414,-0.009391776286065578,Normal,Normal
145632546557,9.413662910461426,0.038285162299871445,-0.5817549824714661,-0.05841226875782013,0.11086877435445786,-0.008170082233846188,Normal,Normal
145632548992,9.530911445617676,0.06699903309345245,-0.8979067206382751,-0.05596888065338135,0.15057384967803955,-0.008170082233846188,Normal,Normal
145632551427,9.61226749420166,0.07178468257188797,-1.323829174041748,-0.05657972767949104,0.14751961827278137,-0.002672456670552492,Normal,Normal
145632553862,9.698409080505371,0.0526420995593071,-1.7524434328079224,-0.04680617153644562,0.10353861004114151,0.0028251686599105597,Normal,Normal
145632556297,9.765408515930176,-0.009571290574967861,-2.0925233364105225,-0.03703261539340019,0.030847785994410515,0.011377030052244663,Normal,Normal
145632558732,9.741479873657227,-0.04307080805301666,-2.2025933265686035,-0.03825430944561958,-0.04550812020897865,0.02053973823785782,Normal,Normal
145632561167,9.638588905334473,-0.05024927482008934,-2.0614166259765625,-0.032756682485342026,-0.10842538625001907,0.029091600328683853,Normal,Normal
145632563602,9.514162063598633,-0.059820566326379776,-1.7404793500900269,-0.02542651630938053,-0.1322484314441681,0.031534988433122635,Normal,Normal
145632566038,9.37059211730957,-0.03349951654672623,-1.350150227546692,-0.02664821222424507,-0.11942064017057419,0.03458922728896141,Normal,Normal
145632568473,9.317950248718262,-0.007178467698395252,-0.9840483069419861,-0.023593975231051445,-0.07055285573005676,0.03214583545923233,Normal,Normal
145632570908,9.406484603881836,0.0,-0.8282157182693481,-0.02970244735479355,-0.008246437646448612,0.022372281178832054,Normal,Normal
145632573343,9.552447319030762,0.0,-0.8883354067802429,-0.018707197159528732,0.04489727318286896,0.015042114071547985,Normal,Normal
145632575778,9.746265411376953,-0.040677983313798904,-1.1204391717910767,-0.03092414326965809,0.07605048269033432,0.009544488042593002,Normal,Normal
145632578213,9.92124080657959,-0.14356936514377594,-1.434198021888733,-0.035200074315071106,0.08154810965061188,0.005268557462841272,Normal,Normal
145632580648,10.076774597167969,-0.21296121180057526,-1.750050663948059,-0.02970244735479355,0.05467082932591438,0.008933641016483307,Normal,Normal
145632583083,10.141380310058594,-0.23210379481315613,-1.92951238155365,-0.040697697550058365,0.008246437646448612,0.010766183026134968,Normal,Normal
145632585518,10.091131210327148,-0.23688943684101105,-1.953440546989441,-0.0492495596408844,-0.029626091942191124,0.012598725035786629,Normal,Normal
145632587953,9.959526062011719,-0.20817556977272034,-1.7620147466659546,-0.05230379477143288,-0.059557609260082245,0.011987877078354359,Normal,Normal
145632590388,9.660123825073242,-0.15553347766399384,-1.4174482822418213,-0.05291464552283287,-0.05528167635202408,0.011987877078354359,Normal,Normal
145632592824,9.40169906616211,-0.10767702013254166,-1.067797064781189,-0.04802786558866501,-0.028404397889971733,0.007711946498602629,Normal,Normal
145632595259,9.26291561126709,-0.08374879509210587,-0.8476574420928955,-0.05596888065338135,0.018019994720816612,0.0016034740256145597,Normal,Normal
145632597694,9.190832138061523,-0.07896314561367035,-0.8258228898048401,-0.04802786558866501,0.05467082932591438,-0.0014507622690871358,Normal,Normal
145632600129,9.298808097839355,-0.11485548317432404,-0.9960124492645264,-0.04802786558866501,0.07360709458589554,-0.0014507622690871358,Normal,Normal
145632602564,9.468698501586914,-0.14117653667926788,-1.256830096244812,-0.044362783432006836,0.06016845628619194,0.0022143214009702206,Normal,Normal
145632604999,9.688838005065918,-0.19142581522464752,-1.5586248636245728,-0.04253023862838745,0.027793550863862038,0.008322793990373611,Normal,Normal
145632607434,9.969097137451172,-0.2153540402650833,-1.80508553981781,-0.03336753323674202,-0.030847785994410515,0.015652960166335106,Normal,Normal
145632609869,10.14616584777832,-0.19381862878799438,-1.8505492210388184,-0.03214583545923233,-0.09009996801614761,0.021150587126612663,Normal,Normal
145632612304,10.172487258911133,-0.11724831163883209,-1.7045869827270508,-0.03764346241950989,-0.12736165523529053,0.019928891211748123,Normal,Normal
145632614739,10.119845390319824,-0.04546362906694412,-1.3980066776275635,-0.024815669283270836,-0.13347013294696808,0.019318044185638428,Normal,Normal
145632617174,9.937990188598633,0.01196411345154047,-1.0271191596984863,-0.027869906276464462,-0.09743013978004456,0.01382041908800602,Normal,Normal
145632619609,9.758230209350586,0.01196411345154047,-0.766002357006073,-0.027869906276464462,-0.0393996499478817,0.007711946498602629,Normal,Normal
145632622044,9.588339805603027,-0.02871387079358101,-0.6966105103492737,-0.015652960166335106,0.03268032893538475,0.005268557462841272,Normal,Normal
145632624480,9.451948165893555,-0.0933200865983963,-0.8282157182693481,-0.029091600328683853,0.091321662068367,0.0028251686599105597,Normal,Normal
145632626915,9.449555397033691,-0.13160525262355804,-1.1635099649429321,-0.019318044185638428,0.12491826713085175,0.0028251686599105597,Normal,Normal
145632629350,9.509376525878906,-0.16031911969184875,-1.6040884256362915,-0.02420482225716114,0.11514470726251602,0.007711946498602629,Normal,Normal
145632631785,9.62901782989502,-0.17228323221206665,-2.018345832824707,-0.035200074315071106,0.07299624383449554,0.010766183026134968,Normal,Normal
145632634220,9.789336204528809,-0.15553347766399384,-2.3365912437438965,-0.03458922728896141,-0.00030542362947016954,0.015652960166335106,Normal,Normal
145632636655,9.878170013427734,-0.12921242415905,-2.4155545234680176,-0.0364217683672905,-0.07238540053367615,0.02176143415272236,Normal,Normal
145632639090,9.827920913696289,-0.11006984114646912,-2.214557409286499,-0.044362783432006836,-0.12797249853610992,0.019928891211748123,Normal,Normal
145632641525,9.727123260498047,-0.1052841991186142,-1.8409779071807861,-0.04558447748422623,-0.1450762301683426,0.015042114071547985,Normal,Normal
145632643960,9.581160545349121,-0.11006984114646912,-1.3932210206985474,-0.05047125369310379,-0.12430741637945175,0.014431266114115715,Normal,Normal
145632646395,9.47348403930664,-0.10049854964017868,-0.9768698215484619,-0.044362783432006836,-0.06933116167783737,0.010766183026134968,Normal,Normal
145632648830,9.454340934753418,-0.10049854964017868,-0.7516453862190247,-0.044362783432006836,-0.003970507066696882,0.008322793990373611,Normal,Normal
145632651265,9.51894760131836,-0.08614161610603333,-0.732502818107605,-0.0492495596408844,0.06016845628619194,0.005879404954612255,Normal,Normal
145632653700,9.696016311645508,-0.07896314561367035,-0.9314061999320984,-0.04497363045811653,0.0925433561205864,0.007101099472492933,Normal,Normal
145632656136,9.870991706848145,-0.08853443711996078,-1.252044439315796,-0.0364217683672905,0.09559759497642517,0.005268557462841272,Normal,Normal
145632658571,9.985847473144531,-0.1052841991186142,-1.572981834411621,-0.0358109213411808,0.0662769302725792,0.0064902519807219505,Normal,Normal
145632661006,10.100702285766602,-0.12442677468061447,-1.8481563329696655,-0.035200074315071106,0.016798298805952072,0.008322793990373611,Normal,Normal
145632663441,10.088738441467285,-0.15314064919948578,-1.9728822708129883,-0.03703261539340019,-0.042453885078430176,0.011987877078354359,Normal,Normal
145632665876,9.954740524291992,-0.15553347766399384,-1.8912272453308105,-0.028480753302574158,-0.08582404255867004,0.015042114071547985,Normal,Normal
145632668311,9.734301567077637,-0.16749759018421173,-1.6447664499282837,-0.027869906276464462,-0.10231691598892212,0.019928891211748123,Normal,Normal
145632670746,9.523733139038086,-0.16031911969184875,-1.3692927360534668,-0.02970244735479355,-0.08582404255867004,0.018707197159528732,Normal,Normal
145632673181,9.382556915283203,-0.17228323221206665,-1.1252248287200928,-0.02420482225716114,-0.046729814261198044,0.018096350133419037,Normal,Normal
145632675616,9.353842735290527,-0.1746760457754135,-1.012762188911438,-0.031534988433122635,-0.00030542362947016954,0.014431266114115715,Normal,Normal
145632678051,9.418449401855469,-0.15553347766399384,-1.0606186389923096,-0.029091600328683853,0.041232191026210785,0.013209572061896324,Normal,Normal
145632680486,9.564411163330078,-0.13160525262355804,-1.2352946996688843,-0.029091600328683853,0.06261184066534042,0.008933641016483307,Normal,Normal
145632682921,9.825528144836426,-0.14117653667926788,-1.4940186738967896,-0.03214583545923233,0.05772506445646286,0.007711946498602629,Normal,Normal
145632685356,10.050453186035156,-0.12442677468061447,-1.7596219778060913,-0.0358109213411808,0.024128466844558716,0.004046862944960594,Normal,Normal
145632687792,10.179665565490723,-0.09571290761232376,-1.9127626419067383,-0.028480753302574158,-0.018019994720816612,0.0028251686599105597,Normal,Normal
145632690227,10.213165283203125,-0.08614161610603333,-1.9055840969085693,-0.0358109213411808,-0.0656660795211792,0.00038177953683771193,Normal,Normal
145632692662,10.069596290588379,-0.10049854964017868,-1.6758731603622437,-0.035200074315071106,-0.0925433561205864,0.0009926267666742206,Normal,Normal
145632695097,9.765408515930176,-0.14117653667926788,-1.3549357652664185,-0.04130854457616806,-0.08704573661088943,0.005879404954612255,Normal,Normal
145632697532,9.490233421325684,-0.17228323221206665,-1.0510473251342773,-0.03886515647172928,-0.04978405311703682,0.010155336000025272,Normal,Normal
145632699967,9.301200866699219,-0.20817556977272034,-0.890728235244751,-0.039476003497838974,-0.00030542362947016954,0.015042114071547985,Normal,Normal
145632702402,9.236295700073242,-0.21774685382843018,-0.890728235244751,-0.04802786558866501,0.04856235533952713,0.018096350133419037,Normal,Normal
145632704837,9.305986404418945,-0.21296121180057526,-1.0510473251342773,-0.03764346241950989,0.07727217674255371,0.021150587126612663,Normal,Normal
145632707272,9.490233421325684,-0.1698904037475586,-1.3645070791244507,-0.039476003497838974,0.07971556484699249,0.018707197159528732,Normal,Normal
145632709707,9.786943435668945,-0.1579262912273407,-1.7691932916641235,-0.04008685052394867,0.04856235533952713,0.015652960166335106,Normal,Normal
145632712142,10.040882110595703,-0.1052841991186142,-2.0781664848327637,-0.028480753302574158,-0.014965757727622986,0.010155336000025272,Normal,Normal
145632714577,10.196415901184082,-0.11006984114646912,-2.231307029724121,-0.039476003497838974,-0.07727217674255371,0.0022143214009702206,Normal,Normal
145632717013,10.227521896362305,-0.14117653667926788,-2.1571295261383057,-0.02970244735479355,-0.13347013294696808,-0.0008399150101467967,Normal,Normal
145632719448,10.074381828308105,-0.1746760457754135,-1.83619225025177,-0.02970244735479355,-0.15484978258609772,-0.004504998680204153,Normal,Normal
145632721883,9.837491989135742,-0.17228323221206665,-1.4294124841690063,-0.035200074315071106,-0.1298050433397293,-0.002672456670552492,Normal,Normal
145632724318,9.624231338500977,-0.13160525262355804,-1.043868899345398,-0.028480753302574158,-0.07055285573005676,-0.004504998680204153,Normal,Normal
145632726753,9.451948165893555,-0.05742774158716202,-0.8018946647644043,-0.026037365198135376,0.0021379655227065086,-0.008170082233846188,Normal,Normal
145632729188,9.420842170715332,0.016749758273363113,-0.7731808423995972,-0.03336753323674202,0.07727217674255371,-0.009391776286065578,Normal,Normal
145632731623,9.538089752197266,0.06699903309345245,-1.0295119285583496,-0.018707197159528732,0.11942064017057419,-0.01122431829571724,Normal,Normal
145632734058,9.696016311645508,0.07896314561367035,-1.4557334184646606,-0.02420482225716114,0.12369657307863235,-0.012446013279259205,Normal,Normal
145632736493,9.887741088867188,0.040677983313798904,-1.896012783050537,-0.02176143415272236,0.0791047215461731,-0.008170082233846188,Normal,Normal
145632738928,10.000204086303711,-0.031106693670153618,-2.2241287231445312,-0.02298312820494175,0.015576604753732681,0.0016034740256145597,Normal,Normal
145632741363,9.976275444030762,-0.08135596662759781,-2.2911276817321777,-0.027869906276464462,-0.05650337040424347,0.010766183026134968,Normal,Normal
145632743798,9.863813400268555,-0.10767702013254166,-2.11405873298645,-0.026037365198135376,-0.10720369219779968,0.01748550310730934,Normal,Normal
145632746234,9.72951602935791,-0.07896314561367035,-1.7691932916641235,-0.031534988433122635,-0.12369657307863235,0.019928891211748123,Normal,Normal
145632748669,9.585947036743164,-0.05503492057323456,-1.342971682548523,-0.043141089379787445,-0.1047603040933609,0.019928891211748123,Normal,Normal
145632751104,9.46630573272705,-0.035892341285943985,-0.9912267923355103,-0.043141089379787445,-0.05405998229980469,0.018096350133419037,Normal,Normal
145632753539,9.430413246154785,-0.03349951654672623,-0.7995018362998962,-0.04497363045811653,0.015576604753732681,0.0064902519807219505,Normal,Normal
145632755974,9.552447319030762,-0.04307080805301666,-0.8811569213867188,-0.043141089379787445,0.0656660795211792,0.00038177953683771193,Normal,Normal
145632758409,9.779765129089355,-0.11485548317432404,-1.1994023323059082,-0.04680617153644562,0.08826743066310883,-0.006948387715965509,Normal,Normal
145632760844,9.997811317443848,-0.1746760457754135,-1.5705889463424683,-0.04619532451033592,0.07177454978227615,-0.009391776286065578,Normal,Normal
145632763279,10.165308952331543,-0.23688943684101105,-1.9007984399795532,-0.04680617153644562,0.02473931387066841,-0.012446013279259205,Normal,Normal
145632765714,10.244272232055664,-0.21774685382843018,-2.066202402114868,-0.04802786558866501,-0.027793550863862038,-0.012446013279259205,Normal,Normal
145632768149,10.205986976623535,-0.1339980661869049,-1.9992033243179321,-0.04375193640589714,-0.08276980370283127,-0.013667707331478596,Normal,Normal
145632770584,10.02173900604248,-0.040677983313798904,-1.7596219778060913,-0.035200074315071106,-0.1053711548447609,-0.017332790419459343,Normal,Normal
145632773020,9.765408515930176,0.035892341285943985,-1.410269856452942,-0.039476003497838974,-0.09804098308086395,-0.02038702741265297,Normal,Normal
145632775455,9.49501895904541,0.064606212079525,-1.1012966632843018,-0.021150587126612663,-0.060779303312301636,-0.02283041551709175,Normal,Normal
145632777890,9.286844253540039,0.04546362906694412,-0.9170492887496948,-0.023593975231051445,-0.007024743594229221,-0.02283041551709175,Normal,Normal
145632780325,9.233902931213379,0.0,-0.9625129103660583,-0.018707197159528732,0.05100574716925621,-0.019776180386543274,Normal,Normal
145632782760,9.4088773727417,-0.02871387079358101,-1.2329018115997314,-0.0028251686599105597,0.06933116167783737,-0.013667707331478596,Normal,Normal
145632785195,9.696016311645508,-0.031106693670153618,-1.6112669706344604,-0.015042114071547985,0.06688777357339859,-0.0038941511884331703,Normal,Normal
145632787630,9.983454704284668,-0.01196411345154047,-1.9438693523406982,-0.007711946498602629,0.020463382825255394,-0.0008399150101467967,Normal,Normal
145632790065,10.14616584777832,0.0023928226437419653,-2.090130567550659,-0.011377030052244663,-0.027793550863862038,0.005879404954612255,Normal,Normal
145632792500,10.194023132324219,0.040677983313798904,-2.032702922821045,-0.015652960166335106,-0.07116370648145676,0.004046862944960594,Normal,Normal
145632794935,10.076774597167969,0.02871387079358101,-1.807478427886963,-0.015042114071547985,-0.08704573661088943,0.004657710436731577,Normal,Normal
145632797371,9.880562782287598,0.0,-1.4868401288986206,-0.024815669283270836,-0.07543963938951492,0.004657710436731577,Normal,Normal
145632799806,9.676874160766602,-0.0526420995593071,-1.1611171960830688,-0.027259059250354767,-0.033291175961494446,0.00038177953683771193,Normal,Normal
145632802241,9.521340370178223,-0.064606212079525,-0.9529415965080261,-0.03825430944561958,0.020463382825255394,-0.005726693198084831,Normal,Normal
145632804676,9.52612590789795,-0.04546362906694412,-0.9409775137901306,-0.040697697550058365,0.07238540053367615,-0.01122431829571724,Normal,Normal
145632807111,9.679266929626465,0.035892341285943985,-1.1012966632843018,-0.039476003497838974,0.09804098308086395,-0.02160872146487236,Normal,Normal
145632809546,9.897313117980957,0.10767702013254166,-1.410269856452942,-0.04619532451033592,0.09009996801614761,-0.03199312463402748,Normal,Normal
145632811981,10.119845390319824,0.14356936514377594,-1.7644076347351074,-0.04680617153644562,0.04611896723508835,-0.039323292672634125,Normal,Normal
145632814416,10.268199920654297,0.12921242415905,-2.011167526245117,-0.041919391602277756,-0.018630841746926308,-0.04359922185540199,Normal,Normal
145632816851,10.289735794067383,0.11485548317432404,-2.0829520225524902,-0.03764346241950989,-0.08765657991170883,-0.038101598620414734,Normal,Normal
145632819286,10.16291618347168,0.07657032459974289,-1.9319051504135132,-0.033978380262851715,-0.13469181954860687,-0.031382277607917786,Normal,Normal
