time_usec,acc_x,acc_y,acc_z,rot_x,rot_y,rot_z,label,type
146287960725,9.844670295715332,0.3233301639556885,-1.5753746032714844,0.03733803704380989,0.019088976085186005,0.015500249341130257,Normal,Normal
146287963160,9.830313682556152,0.2584248483181,-1.654337763786316,0.025731941685080528,0.045355409383773804,0.015500249341130257,Normal,Normal
146287965595,9.815657615661621,0.19381862878799438,-1.7548363208770752,0.01046075951308012,0.058183200657367706,0.014278554357588291,Normal,Normal
146287968030,9.755837440490723,0.12203395366668701,-1.8266209363937378,-0.004810422193259001,0.06612421572208405,0.014889402315020561,Normal,Normal
146287970465,9.679266929626465,0.059820566326379776,-1.8768702745437622,-0.021303297951817513,0.06062658876180649,0.014278554357588291,Normal,Normal
146287972900,9.650552749633789,0.0526420995593071,-1.9151554107666016,-0.0426829531788826,0.045355409383773804,0.014278554357588291,Normal,Normal
146287975335,9.655338287353516,0.040677983313798904,-1.896012783050537,-0.04634803533554077,0.023364907130599022,0.008780929259955883,Normal,Normal
146287977770,9.660123825073242,0.08614161610603333,-1.8601205348968506,-0.054899897426366806,-0.0010689827613532543,0.0032833039294928312,Normal,Normal
146287980206,9.688838005065918,0.11246266216039658,-1.8146568536758423,-0.05856497958302498,-0.025502873584628105,-0.0028251686599105597,Normal,Normal
146287982641,9.741479873657227,0.09571290761232376,-1.7404793500900269,-0.0555107444524765,-0.05115845799446106,-0.009544488042593002,Normal,Normal
146287985075,9.777372360229492,0.0526420995593071,-1.6639090776443481,-0.04634803533554077,-0.06887302547693253,-0.011377030052244663,Normal,Normal
146287987510,9.806086540222168,0.02153540402650833,-1.5849459171295166,-0.04085041210055351,-0.07742489129304886,-0.007101099472492933,Normal,Normal
146287989945,9.813264846801758,0.004785645287483931,-1.470090389251709,-0.0231358390301466,-0.07009471952915192,-0.0016034740256145597,Normal,Normal
146287992380,9.839884757995605,-0.0023928226437419653,-1.3597214221954346,-0.012751436792314053,-0.05115845799446106,-0.00038177953683771193,Normal,Normal
146287994815,9.835099220275879,0.04785645380616188,-1.2616157531738281,0.0031305921729654074,-0.023059483617544174,0.004504998680204153,Normal,Normal
146287997250,9.818050384521484,0.08853443711996078,-1.1922239065170288,0.02145601063966751,0.011147962883114815,0.004504998680204153,Normal,Normal
146287999686,9.772586822509766,0.1579262912273407,-1.1994023323059082,0.03061871975660324,0.04718795046210289,0.002672456670552492,Normal,Normal
146288002121,9.76062297821045,0.20338992774486542,-1.3022937774658203,0.040392275899648666,0.072232685983181,0.002061609411612153,Normal,Normal
146288004556,9.710372924804688,0.1986042857170105,-1.4676976203918457,0.049554985016584396,0.08383878320455551,-0.0016034740256145597,Normal,Normal
146288006991,9.667302131652832,0.17228323221206665,-1.6878372430801392,0.04650074616074562,0.07650861889123917,-0.0034360159188508987,Normal,Normal
146288009426,9.664909362792969,0.15074782073497772,-1.9247267246246338,0.044668205082416534,0.051463883370161057,-0.004657710436731577,Normal,Normal
146288011861,9.652945518493652,0.09810572862625122,-2.094916343688965,0.03733803704380989,0.016645587980747223,-0.0022143214009702206,Normal,Normal
146288014296,9.669695854187012,0.10049854964017868,-2.183450698852539,0.027564482763409615,-0.023059483617544174,0.0038941511884331703,Normal,Normal
146288016731,9.672088623046875,0.11006984114646912,-2.1714866161346436,0.012904148548841476,-0.05421269312500954,0.0051158457063138485,Normal,Normal
146288019166,9.712766647338867,0.14835500717163086,-2.059023857116699,0.004963133949786425,-0.0719272643327713,0.007559234742075205,Normal,Normal
146288021602,9.765408515930176,0.16510476171970367,-1.8792630434036255,-0.013362283818423748,-0.07375980913639069,0.004504998680204153,Normal,Normal
146288024037,9.734301567077637,0.19621145725250244,-1.6567305326461792,-0.014583977870643139,-0.052990999072790146,0.004504998680204153,Normal,Normal
146288026472,9.684052467346191,0.20338992774486542,-1.4413765668869019,-0.031076854094862938,-0.01817270554602146,0.0038941511884331703,Normal,Normal
146288028907,9.679266929626465,0.16749759018421173,-1.316650629043579,-0.03596363216638565,0.02092151902616024,0.002672456670552492,Normal,Normal
146288031342,9.712766647338867,0.12442677468061447,-1.3214362859725952,-0.03901786729693413,0.049020491540431976,-0.0009926267666742206,Normal,Normal
146288033777,9.774979591369629,0.10767702013254166,-1.4054841995239258,-0.04085041210055351,0.06673506647348404,0.0008399150101467967,Normal,Normal
146288036213,9.810872077941895,0.07896314561367035,-1.5251253843307495,-0.03840702027082443,0.06245913356542587,-0.00038177953683771193,Normal,Normal
146288038648,9.861420631408691,0.08135596662759781,-1.678265929222107,-0.03229855000972748,0.039857782423496246,0.0008399150101467967,Normal,Normal
146288041083,9.832706451416016,0.07657032459974289,-1.750050663948059,-0.027411770075559616,0.011147962883114815,0.00022906772210262716,Normal,Normal
146288043518,9.741479873657227,0.07417750358581543,-1.7572290897369385,-0.012751436792314053,-0.018783552572131157,0.002061609411612153,Normal,Normal
146288045953,9.667302131652832,0.05024927482008934,-1.7428722381591797,-0.0035887276753783226,-0.03955236077308655,0.0038941511884331703,Normal,Normal
146288048388,9.650552749633789,0.059820566326379776,-1.709372639656067,0.0031305921729654074,-0.04993676394224167,0.0014507622690871358,Normal,Normal
146288050823,9.626625061035156,0.062213387340307236,-1.659123420715332,0.01901262067258358,-0.05360184609889984,0.0032833039294928312,Normal,Normal
146288053258,9.609874725341797,0.04546362906694412,-1.6136597394943237,0.02145601063966751,-0.041384901851415634,0.002061609411612153,Normal,Normal
146288055693,9.631410598754883,0.04307080805301666,-1.55623197555542,0.026342788711190224,-0.025502873584628105,0.002061609411612153,Normal,Normal
146288058129,9.712766647338867,0.07178468257188797,-1.5394822359085083,0.03489464893937111,-0.0029015245381742716,-0.0022143214009702206,Normal,Normal
146288060564,9.801301002502441,0.11246266216039658,-1.5801602602005005,0.0293970238417387,0.015423892997205257,0.0008399150101467967,Normal,Normal
146288062998,9.868598937988281,0.14356936514377594,-1.6064813137054443,0.03306210786104202,0.02886253222823143,-0.0022143214009702206,Normal,Normal
146288065433,9.89970588684082,0.1746760457754135,-1.6423736810684204,0.02695363573729992,0.03680354729294777,-0.004657710436731577,Normal,Normal
146288067868,9.870991706848145,0.1986042857170105,-1.6663018465042114,0.012293301522731781,0.03924693539738655,-0.007101099472492933,Normal,Normal
146288070304,9.779765129089355,0.19621145725250244,-1.6878372430801392,0.018401773646473885,0.03558185324072838,-0.008322793990373611,Normal,Normal
146288072739,9.710372924804688,0.19381862878799438,-1.7165511846542358,0.0025197449140250683,0.03008422814309597,-0.005879404954612255,Normal,Normal
146288075174,9.633803367614746,0.17228323221206665,-1.7476578950881958,-0.00786465872079134,0.021532366052269936,-0.004657710436731577,Normal,Normal
146288077609,9.595518112182617,0.14356936514377594,-1.7931214570999146,-0.005421269219368696,0.0050394898280501366,-0.0009926267666742206,Normal,Normal
146288080044,9.583553314208984,0.1339980661869049,-1.8505492210388184,-0.02680092304944992,-0.009620844386518002,0.0038941511884331703,Normal,Normal
146288082479,9.621838569641113,0.11964113265275955,-1.8529419898986816,-0.02008160389959812,-0.02733541466295719,0.008170082233846188,Normal,Normal
146288084914,9.602696418762207,0.11724831163883209,-1.8194425106048584,-0.023746687918901443,-0.034665580838918686,0.006337540224194527,Normal,Normal
146288087349,9.640981674194336,0.1339980661869049,-1.7237296104431152,-0.035352785140275955,-0.03588727489113808,0.010613471269607544,Normal,Normal
146288089784,9.693623542785645,0.14117653667926788,-1.6136597394943237,-0.022524992004036903,-0.03405473381280899,0.008780929259955883,Normal,Normal
146288092220,9.696016311645508,0.13160525262355804,-1.4916257858276367,-0.020692450925707817,-0.020005248486995697,0.008170082233846188,Normal,Normal
146288094655,9.731908798217773,0.11246266216039658,-1.40279221534729,-0.023746687918901443,-0.0022906772792339325,0.006948387715965509,Normal,Normal
146288097090,9.758230209350586,0.12203395366668701,-1.3597214221954346,-0.004199574701488018,0.015423892997205257,0.002061609411612153,Normal,Normal
146288099525,9.772586822509766,0.10049854964017868,-1.3860424757003784,-0.006642963737249374,0.030695075169205666,-0.004046862944960594,Normal,Normal
146288101960,9.803693771362305,0.10289137065410614,-1.4844473600387573,0.0019088976550847292,0.03497100621461868,-0.005268557462841272,Normal,Normal
146288104396,9.803693771362305,0.06939185410737991,-1.5945172309875488,0.015347537584602833,0.024586603045463562,-0.005268557462841272,Normal,Normal
146288106831,9.847063064575195,0.08614161610603333,-1.7380865812301636,0.01046075951308012,0.014202198944985867,-0.008322793990373611,Normal,Normal
146288109266,9.839884757995605,0.08614161610603333,-1.8337994813919067,0.022066857665777206,-0.012064233422279358,-0.0022143214009702206,Normal,Normal
146288111701,9.765408515930176,0.09092725813388824,-1.8601205348968506,0.027564482763409615,-0.0261137206107378,-0.0022143214009702206,Normal,Normal
146288114136,9.698409080505371,0.09571290761232376,-1.843370795249939,0.01046075951308012,-0.029778804630041122,0.002061609411612153,Normal,Normal
146288116571,9.650552749633789,0.11724831163883209,-1.8098711967468262,0.03061871975660324,-0.028557108715176582,0.002061609411612153,Normal,Normal
146288119006,9.624231338500977,0.1459621787071228,-1.7476578950881958,0.012293301522731781,-0.019394399598240852,0.002672456670552492,Normal,Normal
146288121441,9.626625061035156,0.15074782073497772,-1.7117655277252197,0.011071606539189816,-0.0022906772792339325,0.0038941511884331703,Normal,Normal
146288123877,9.650552749633789,0.16749759018421173,-1.6998014450073242,0.018401773646473885,0.01175880990922451,0.002672456670552492,Normal,Normal
146288126312,9.655338287353516,0.16031911969184875,-1.683051586151123,-0.0029778804164379835,0.02886253222823143,0.002061609411612153,Normal,Normal
146288128747,9.672088623046875,0.16031911969184875,-1.7045869827270508,-0.0023670331574976444,0.0325276181101799,-0.0009926267666742206,Normal,Normal
146288131182,9.676874160766602,0.1579262912273407,-1.7309080362319946,-0.007253811229020357,0.0325276181101799,-0.0016034740256145597,Normal,Normal
146288133617,9.75344467163086,0.14117653667926788,-1.800299882888794,-0.012140588834881783,0.027029991149902344,0.0008399150101467967,Normal,Normal
146288136052,9.772586822509766,0.14117653667926788,-1.8170497417449951,-0.011529741808772087,0.005650337319821119,0.0008399150101467967,Normal,Normal
146288138487,9.739087104797363,0.12681959569454193,-1.7955143451690674,-0.018249060958623886,-0.009009997360408306,0.0014507622690871358,Normal,Normal
146288140922,9.75105094909668,0.14356936514377594,-1.7620147466659546,-0.020692450925707817,-0.01695101149380207,0.0008399150101467967,Normal,Normal
146288143357,9.741479873657227,0.10289137065410614,-1.6663018465042114,-0.015805672854185104,-0.027946261689066887,0.005726693198084831,Normal,Normal
146288145792,9.700801849365234,0.1052841991186142,-1.5514464378356934,-0.021914144977927208,-0.02489202655851841,0.0032833039294928312,Normal,Normal
146288148227,9.686445236206055,0.12203395366668701,-1.434198021888733,-0.017027366906404495,-0.011453386396169662,0.002672456670552492,Normal,Normal
146288150662,9.648159980773926,0.1459621787071228,-1.3453645706176758,-0.005421269219368696,0.005650337319821119,0.002672456670552492,Normal,Normal
146288153097,9.617053031921387,0.15314064919948578,-1.3070793151855469,-0.006032116711139679,0.02092151902616024,-0.00038177953683771193,Normal,Normal
146288155533,9.650552749633789,0.13878370821475983,-1.3549357652664185,-0.0029778804164379835,0.0331384651362896,-0.0016034740256145597,Normal,Normal
146288157968,9.679266929626465,0.14356936514377594,-1.4557334184646606,0.00862821750342846,0.0331384651362896,-0.0009926267666742206,Normal,Normal
146288160403,9.7366943359375,0.15074782073497772,-1.572981834411621,0.014736690558493137,0.029473381116986275,-0.0034360159188508987,Normal,Normal
146288162838,9.8207426071167,0.13878370821475983,-1.721336841583252,0.00862821750342846,0.007482878863811493,-0.0022143214009702206,Normal,Normal
146288165273,9.801301002502441,0.13639089465141296,-1.8098711967468262,0.02145601063966751,-0.011453386396169662,-0.00038177953683771193,Normal,Normal
146288167708,9.786943435668945,0.12681959569454193,-1.8792630434036255,0.009849912486970425,-0.0328330397605896,0.002061609411612153,Normal,Normal
146288170143,9.789336204528809,0.12442677468061447,-1.922333836555481,0.01779092662036419,-0.04504998400807381,0.0008399150101467967,Normal,Normal
146288172578,9.765408515930176,0.09810572862625122,-1.927119493484497,0.015347537584602833,-0.050547610968351364,0.004504998680204153,Normal,Normal
146288175013,9.76062297821045,0.08614161610603333,-1.9007984399795532,0.005573981441557407,-0.04199574887752533,0.004504998680204153,Normal,Normal
146288177449,9.71515941619873,0.08614161610603333,-1.8481563329696655,0.0067956759594380856,-0.027946261689066887,0.006948387715965509,Normal,Normal
146288179884,9.703194618225098,0.09571290761232376,-1.7931214570999146,0.0031305921729654074,0.001985253533348441,0.0038941511884331703,Normal,Normal
146288182319,9.688838005065918,0.11006984114646912,-1.7644076347351074,7.635590736754239e-05,0.024586603045463562,0.0008399150101467967,Normal,Normal
146288184753,9.688838005065918,0.14117653667926788,-1.7620147466659546,-0.004810422193259001,0.04046862944960594,0.0014507622690871358,Normal,Normal
146288187189,9.660123825073242,0.16271193325519562,-1.7309080362319946,-0.010308047756552696,0.05329642444849014,-0.004657710436731577,Normal,Normal
146288189624,9.679266929626465,0.14835500717163086,-1.750050663948059,-0.010918894782662392,0.05390727147459984,-0.0064902519807219505,Normal,Normal
146288192059,9.734301567077637,0.16271193325519562,-1.7715860605239868,-0.009697199799120426,0.04291202127933502,-0.008322793990373611,Normal,Normal
146288194494,9.74387264251709,0.16510476171970367,-1.7644076347351074,-0.017027366906404495,0.022754060104489326,-0.005879404954612255,Normal,Normal
146288196929,9.696016311645508,0.1746760457754135,-1.6878372430801392,-0.012751436792314053,-0.0004581354442052543,-0.004046862944960594,Normal,Normal
146288199364,9.626625061035156,0.1746760457754135,-1.596909999847412,-0.00786465872079134,-0.013896775431931019,-0.0022143214009702206,Normal,Normal
146288201799,9.638588905334473,0.1746760457754135,-1.529910922050476,-0.005421269219368696,-0.02244863659143448,0.0014507622690871358,Normal,Normal
146288204234,9.662516593933105,0.16031911969184875,-1.4820544719696045,7.635590736754239e-05,-0.028557108715176582,0.0038941511884331703,Normal,Normal
146288206669,9.71515941619873,0.14117653667926788,-1.470090389251709,-0.0011453386396169662,-0.029167955741286278,0.006948387715965509,Normal,Normal
146288209105,9.758230209350586,0.14356936514377594,-1.4676976203918457,0.00129805039614439,-0.02489202655851841,0.011835165321826935,Normal,Normal
146288211540,9.74387264251709,0.15074782073497772,-1.4557334184646606,0.009849912486970425,-0.014507622458040714,0.011835165321826935,Normal,Normal
146288213975,9.712766647338867,0.14117653667926788,-1.4437693357467651,0.004352286923676729,0.004428642801940441,0.01122431829571724,Normal,Normal
146288216410,9.734301567077637,0.12681959569454193,-1.470090389251709,0.0067956759594380856,0.019088976085186005,0.007559234742075205,Normal,Normal
146288218845,9.707980155944824,0.11724831163883209,-1.5179468393325806,0.009849912486970425,0.0325276181101799,0.0051158457063138485,Normal,Normal
146288221280,9.727123260498047,0.1052841991186142,-1.651944875717163,0.0019088976550847292,0.036192700266838074,0.0008399150101467967,Normal,Normal
146288223715,9.734301567077637,0.10767702013254166,-1.7476578950881958,0.008017370477318764,0.027029991149902344,-0.004046862944960594,Normal,Normal
146288226150,9.724730491638184,0.11246266216039658,-1.8409779071807861,0.006184828467667103,0.017867282032966614,-0.008322793990373611,Normal,Normal
146288228585,9.808479309082031,0.12921242415905,-1.9848463535308838,0.000687203137204051,-0.0004581354442052543,-0.005879404954612255,Normal,Normal
146288231020,9.8207426071167,0.12921242415905,-2.025524377822876,0.005573981441557407,-0.029778804630041122,-0.010766183026134968,Normal,Normal
146288233455,9.72233772277832,0.15074782073497772,-1.9486548900604248,-0.0029778804164379835,-0.04199574887752533,-0.007711946498602629,Normal,Normal
146288235891,9.72233772277832,0.16271193325519562,-1.8816559314727783,-0.0035887276753783226,-0.04443913698196411,-0.005268557462841272,Normal,Normal
146288238326,9.72233772277832,0.1579262912273407,-1.781157374382019,7.635590736754239e-05,-0.03894151374697685,-0.0022143214009702206,Normal,Normal
146288240761,9.755837440490723,0.17706887423992157,-1.709372639656067,-0.0023670331574976444,-0.029778804630041122,0.0014507622690871358,Normal,Normal
146288243196,9.774979591369629,0.17946170270442963,-1.6399807929992676,0.0031305921729654074,-0.009009997360408306,0.002672456670552492,Normal,Normal
146288245631,9.75344467163086,0.20817556977272034,-1.5658032894134521,-0.006032116711139679,0.011147962883114815,0.0051158457063138485,Normal,Normal
146288248066,9.698409080505371,0.19142581522464752,-1.4820544719696045,-0.0023670331574976444,0.03558185324072838,0.0051158457063138485,Normal,Normal
146288250501,9.719944953918457,0.1746760457754135,-1.5131611824035645,-0.0011453386396169662,0.05085303261876106,0.006948387715965509,Normal,Normal
146288252936,9.727123260498047,0.16510476171970367,-1.537089467048645,-0.0029778804164379835,0.06062658876180649,0.008780929259955883,Normal,Normal
146288255371,9.724730491638184,0.15553347766399384,-1.6136597394943237,-0.0035887276753783226,0.054518118500709534,0.006337540224194527,Normal,Normal
146288257807,9.707980155944824,0.13160525262355804,-1.683051586151123,-0.0011453386396169662,0.04169032722711563,0.005726693198084831,Normal,Normal
146288260242,9.684052467346191,0.1052841991186142,-1.7356936931610107,-0.0023670331574976444,0.019088976085186005,0.0051158457063138485,Normal,Normal
146288262677,9.700801849365234,0.12203395366668701,-1.776371717453003,-0.0017561858985573053,-0.005955760832875967,0.0038941511884331703,Normal,Normal
146288265112,9.717552185058594,0.10049854964017868,-1.7859430313110352,-0.0029778804164379835,-0.0261137206107378,0.0032833039294928312,Normal,Normal
146288267548,9.71515941619873,0.11485548317432404,-1.7285152673721313,-0.0011453386396169662,-0.04016320779919624,0.0008399150101467967,Normal,Normal
146288269983,9.741479873657227,0.12681959569454193,-1.6663018465042114,-0.005421269219368696,-0.04504998400807381,-0.0022143214009702206,Normal,Normal
146288272418,9.786943435668945,0.1339980661869049,-1.6040884256362915,-0.004199574701488018,-0.04321744292974472,-0.0022143214009702206,Normal,Normal
146288274853,9.798908233642578,0.12203395366668701,-1.5131611824035645,-0.0023670331574976444,-0.0328330397605896,-0.004046862944960594,Normal,Normal
146288277288,9.772586822509766,0.12442677468061447,-1.4270195960998535,0.0019088976550847292,-0.012675080448389053,-0.0034360159188508987,Normal,Normal
146288279723,9.75105094909668,0.15074782073497772,-1.347757339477539,-0.0011453386396169662,0.015423892997205257,-0.0034360159188508987,Normal,Normal
146288282158,9.748658180236816,0.18903298676013947,-1.3286148309707642,0.0031305921729654074,0.03374931216239929,-0.0034360159188508987,Normal,Normal
146288284593,9.741479873657227,0.22013968229293823,-1.3549357652664185,0.0031305921729654074,0.04840964451432228,-0.004046862944960594,Normal,Normal
146288287028,9.72951602935791,0.23210379481315613,-1.4868401288986206,0.005573981441557407,0.055739812552928925,-0.007101099472492933,Normal,Normal
146288289464,9.710372924804688,0.2225325107574463,-1.6663018465042114,0.0067956759594380856,0.04291202127933502,-0.005879404954612255,Normal,Normal
146288291899,9.72233772277832,0.1986042857170105,-1.8290138244628906,0.004963133949786425,0.01847812905907631,-0.0034360159188508987,Normal,Normal
146288294334,9.763015747070312,0.16271193325519562,-2.0135602951049805,0.0067956759594380856,-0.010231691412627697,0.0032833039294928312,Normal,Normal
146288296769,9.782157897949219,0.12203395366668701,-2.097309112548828,0.0037414394319057465,-0.0456608310341835,0.010002624243497849,Normal,Normal
146288299204,9.712766647338867,0.09092725813388824,-2.056631088256836,0.004352286923676729,-0.06154286116361618,0.0130568603053689,Normal,Normal
146288301639,9.731908798217773,0.10289137065410614,-1.9920248985290527,7.635590736754239e-05,-0.06642963737249374,0.016111096367239952,Normal,Normal
146288304074,9.765408515930176,0.11006984114646912,-1.8505492210388184,-0.0023670331574976444,-0.05665608495473862,0.016721943393349648,Normal,Normal
146288306509,9.76062297821045,0.1339980661869049,-1.6567305326461792,-0.004199574701488018,-0.03527642786502838,0.012446013279259205,Normal,Normal
146288308944,9.758230209350586,0.13639089465141296,-1.505982756614685,-0.009697199799120426,0.001374406274408102,0.008780929259955883,Normal,Normal
146288311379,9.748658180236816,0.16271193325519562,-1.40279221534729,-0.004810422193259001,0.03924693539738655,0.0008399150101467967,Normal,Normal
146288313814,9.7366943359375,0.16749759018421173,-1.3980066776275635,-0.006642963737249374,0.07345438003540039,-0.0064902519807219505,Normal,Normal
146288316249,9.791728973388672,0.14835500717163086,-1.4940186738967896,-0.006032116711139679,0.08200624585151672,-0.008322793990373611,Normal,Normal
146288318684,9.791728973388672,0.11724831163883209,-1.6136597394943237,-0.007253811229020357,0.072843536734581,-0.012598725035786629,Normal,Normal
146288321120,9.827920913696289,0.10767702013254166,-1.7428722381591797,-0.0035887276753783226,0.0459662564098835,-0.007101099472492933,Normal,Normal
146288323555,9.813264846801758,0.1052841991186142,-1.7979071140289307,-0.004199574701488018,0.011147962883114815,-0.005268557462841272,Normal,Normal
146288325990,9.758230209350586,0.11006984114646912,-1.7524434328079224,-0.004810422193259001,-0.023059483617544174,-0.0016034740256145597,Normal,Normal
146288328425,9.705587387084961,0.13160525262355804,-1.6495521068572998,-0.0017561858985573053,-0.04749337583780289,0.0032833039294928312,Normal,Normal
146288330860,9.652945518493652,0.15553347766399384,-1.5083755254745483,0.004352286923676729,-0.051769305020570755,0.0051158457063138485,Normal,Normal
146288333295,9.61226749420166,0.20817556977272034,-1.3716856241226196,0.007406522985547781,-0.04199574887752533,0.007559234742075205,Normal,Normal
146288335730,9.614660263061523,0.2392822653055191,-1.3046865463256836,0.0025197449140250683,-0.021226942539215088,0.005726693198084831,Normal,Normal
146288338165,9.707980155944824,0.21296121180057526,-1.316650629043579,0.011071606539189816,-0.0004581354442052543,0.002061609411612153,Normal,Normal
146288340600,9.774979591369629,0.1866401731967926,-1.3980066776275635,0.013514995574951172,0.016034740954637527,0.002672456670552492,Normal,Normal
146288343035,9.774979591369629,0.13878370821475983,-1.4892330169677734,0.0019088976550847292,0.024586603045463562,0.002672456670552492,Normal,Normal
146288345470,9.818050384521484,0.10289137065410614,-1.6064813137054443,0.009239064529538155,0.02641914412379265,0.004504998680204153,Normal,Normal
146288347906,9.844670295715332,0.0933200865983963,-1.7069798707962036,0.004352286923676729,0.020310672000050545,0.006337540224194527,Normal,Normal
146288350341,9.798908233642578,0.10049854964017868,-1.7524434328079224,0.000687203137204051,0.014202198944985867,0.0051158457063138485,Normal,Normal
146288352776,9.71515941619873,0.11964113265275955,-1.776371717453003,0.0031305921729654074,0.0050394898280501366,0.005726693198084831,Normal,Normal
146288355211,9.719944953918457,0.15074782073497772,-1.83619225025177,-0.0035887276753783226,-0.0029015245381742716,0.0008399150101467967,Normal,Normal
146288357646,9.731908798217773,0.15314064919948578,-1.9079769849777222,-0.006642963737249374,-0.014507622458040714,-0.0028251686599105597,Normal,Normal
146288360081,9.724730491638184,0.13639089465141296,-1.9462621212005615,-0.004199574701488018,-0.02733541466295719,-0.0022143214009702206,Normal,Normal
146288362516,9.758230209350586,0.11006984114646912,-1.9728822708129883,-0.006032116711139679,-0.03527642786502838,-0.0028251686599105597,Normal,Normal
146288364951,9.777372360229492,0.07178468257188797,-1.9414764642715454,-0.008475505746901035,-0.04016320779919624,-0.00038177953683771193,Normal,Normal
146288367386,9.784550666809082,0.0526420995593071,-1.8481563329696655,-0.0023670331574976444,-0.03588727489113808,0.0032833039294928312,Normal,Normal
146288369822,9.734301567077637,0.064606212079525,-1.6758731603622437,-0.006032116711139679,-0.021837789565324783,0.0051158457063138485,Normal,Normal
146288372257,9.664909362792969,0.11246266216039658,-1.4988043308258057,-0.008475505746901035,0.0050394898280501366,0.0051158457063138485,Normal,Normal
146288374692,9.669695854187012,0.16271193325519562,-1.3860424757003784,-0.0017561858985573053,0.03374931216239929,0.002672456670552492,Normal,Normal
146288377127,9.672088623046875,0.19381862878799438,-1.3597214221954346,0.000687203137204051,0.05512896552681923,-0.00038177953683771193,Normal,Normal
146288379562,9.669695854187012,0.2105683982372284,-1.407876968383789,0.004352286923676729,0.06612421572208405,-0.0028251686599105597,Normal,Normal
146288381997,9.691230773925781,0.16749759018421173,-1.5251253843307495,0.0037414394319057465,0.06184828653931618,-0.0034360159188508987,Normal,Normal
146288384433,9.731908798217773,0.12921242415905,-1.6926229000091553,0.0067956759594380856,0.039857782423496246,-0.0022143214009702206,Normal,Normal
146288386867,9.75105094909668,0.07178468257188797,-1.8625133037567139,0.0031305921729654074,0.007482878863811493,0.0008399150101467967,Normal,Normal
146288389302,9.774979591369629,0.0526420995593071,-1.92951238155365,-0.0005344913806766272,-0.029167955741286278,0.006948387715965509,Normal,Normal
146288391738,9.794121742248535,0.0526420995593071,-1.9055840969085693,0.005573981441557407,-0.05787777900695801,0.008780929259955883,Normal,Normal
146288394173,9.784550666809082,0.08374879509210587,-1.7907286882400513,-0.0029778804164379835,-0.06826218217611313,0.011835165321826935,Normal,Normal
146288396608,9.746265411376953,0.13878370821475983,-1.596909999847412,-0.0017561858985573053,-0.06520794332027435,0.010002624243497849,Normal,Normal
146288399043,9.660123825073242,0.17946170270442963,-1.415055513381958,0.004352286923676729,-0.03649812191724777,0.0038941511884331703,Normal,Normal
146288401478,9.614660263061523,0.19381862878799438,-1.2999008893966675,-0.007253811229020357,0.00259610079228878,0.002061609411612153,Normal,Normal
146288403913,9.595518112182617,0.16031911969184875,-1.316650629043579,0.00129805039614439,0.038636088371276855,-0.004657710436731577,Normal,Normal
146288406348,9.626625061035156,0.11964113265275955,-1.4222339391708374,-0.004810422193259001,0.06001574173569679,-0.005879404954612255,Normal,Normal
146288408783,9.686445236206055,0.08135596662759781,-1.623231053352356,-0.006642963737249374,0.06368082761764526,-0.0064902519807219505,Normal,Normal
146288411218,9.796515464782715,0.06699903309345245,-1.8481563329696655,0.006184828467667103,0.04352286830544472,-0.0022143214009702206,Normal,Normal
146288413654,9.878170013427734,0.07417750358581543,-1.9920248985290527,-0.008475505746901035,0.01175880990922451,0.00022906772210262716,Normal,Normal
146288416089,9.904491424560547,0.12442677468061447,-2.049452543258667,-0.0035887276753783226,-0.024281177669763565,0.0038941511884331703,Normal,Normal
146288418524,9.89970588684082,0.15314064919948578,-2.0279171466827393,-0.004199574701488018,-0.05421269312500954,0.002672456670552492,Normal,Normal
146288420959,9.818050384521484,0.15553347766399384,-1.9199410676956177,-0.0029778804164379835,-0.06642963737249374,0.002672456670552492,Normal,Normal
146288423395,9.703194618225098,0.12681959569454193,-1.7596219778060913,0.005573981441557407,-0.060932014137506485,0.002672456670552492,Normal,Normal
146288425830,9.585947036743164,0.11724831163883209,-1.6064813137054443,-0.0023670331574976444,-0.03771981969475746,0.0038941511884331703,Normal,Normal
146288428265,9.523733139038086,0.10289137065410614,-1.501197099685669,-0.0029778804164379835,-0.005344913341104984,0.004504998680204153,Normal,Normal
146288430700,9.52612590789795,0.10767702013254166,-1.4892330169677734,0.0037414394319057465,0.031916771084070206,0.002061609411612153,Normal,Normal
146288433135,9.573982238769531,0.11246266216039658,-1.532303810119629,0.0031305921729654074,0.05512896552681923,0.002061609411612153,Normal,Normal
146288435570,9.621838569641113,0.16031911969184875,-1.596909999847412,0.0019088976550847292,0.06306997686624527,0.002672456670552492,Normal,Normal
146288438005,9.705587387084961,0.1579262912273407,-1.6806588172912598,-0.0005344913806766272,0.06062658876180649,0.0014507622690871358,Normal,Normal
146288440440,9.755837440490723,0.15074782073497772,-1.7596219778060913,0.005573981441557407,0.045355409383773804,-0.0009926267666742206,Normal,Normal
146288442875,9.72233772277832,0.12442677468061447,-1.7668004035949707,0.006184828467667103,0.01969982497394085,0.00022906772210262716,Normal,Normal
146288445311,9.717552185058594,0.11246266216039658,-1.7835501432418823,0.0037414394319057465,-0.009009997360408306,0.0014507622690871358,Normal,Normal
146288447746,9.696016311645508,0.0933200865983963,-1.7404793500900269,-0.0035887276753783226,-0.030389651656150818,0.0038941511884331703,Normal,Normal
146288450181,9.688838005065918,0.09092725813388824,-1.6710875034332275,-0.0005344913806766272,-0.042606595903635025,0.0038941511884331703,Normal,Normal
146288452616,9.700801849365234,0.09571290761232376,-1.6208382844924927,-0.0017561858985573053,-0.042606595903635025,0.0038941511884331703,Normal,Normal
146288455051,9.719944953918457,0.10767702013254166,-1.5586248636245728,-0.007253811229020357,-0.03955236077308655,0.002672456670552492,Normal,Normal
146288457486,9.777372360229492,0.14117653667926788,-1.55623197555542,-0.004199574701488018,-0.027946261689066887,0.002672456670552492,Normal,Normal
146288459921,9.796515464782715,0.14117653667926788,-1.5490535497665405,7.635590736754239e-05,-0.013285927474498749,0.0008399150101467967,Normal,Normal
146288462356,9.75344467163086,0.12681959569454193,-1.5442678928375244,-0.007253811229020357,0.009315420873463154,-0.00038177953683771193,Normal,Normal
146288464791,9.705587387084961,0.10767702013254166,-1.529910922050476,0.00129805039614439,0.025808297097682953,0.0014507622690871358,Normal,Normal
146288467226,9.657731056213379,0.10049854964017868,-1.561017632484436,-0.004810422193259001,0.038636088371276855,-0.0009926267666742206,Normal,Normal
146288469661,9.624231338500977,0.10049854964017868,-1.623231053352356,-0.0035887276753783226,0.04413371533155441,0.00022906772210262716,Normal,Normal
146288472096,9.645767211914062,0.12681959569454193,-1.714158296585083,0.0031305921729654074,0.04169032722711563,-0.0028251686599105597,Normal,Normal
146288474531,9.696016311645508,0.15314064919948578,-1.8170497417449951,-0.0011453386396169662,0.02214321307837963,-0.004657710436731577,Normal,Normal
146288476966,9.7366943359375,0.16271193325519562,-1.9103697538375854,0.0019088976550847292,0.0007635590736754239,-0.004657710436731577,Normal,Normal
146288479402,9.758230209350586,0.16510476171970367,-1.953440546989441,0.00862821750342846,-0.027946261689066887,-0.0028251686599105597,Normal,Normal
146288481837,9.786943435668945,0.16510476171970367,-1.9558334350585938,0.000687203137204051,-0.04688252881169319,-0.0022143214009702206,Normal,Normal
146288484272,9.806086540222168,0.1339980661869049,-1.927119493484497,0.004963133949786425,-0.06154286116361618,0.0008399150101467967,Normal,Normal
146288486707,9.777372360229492,0.11485548317432404,-1.8266209363937378,7.635590736754239e-05,-0.06154286116361618,0.006337540224194527,Normal,Normal
146288489142,9.7366943359375,0.10049854964017868,-1.695015788078308,0.000687203137204051,-0.04199574887752533,0.007559234742075205,Normal,Normal
146288491577,9.700801849365234,0.09571290761232376,-1.5634105205535889,0.006184828467667103,-0.013285927474498749,0.01122431829571724,Normal,Normal
146288494012,9.679266929626465,0.10767702013254166,-1.4916257858276367,-0.0029778804164379835,0.021532366052269936,0.009391776286065578,Normal,Normal
146288496447,9.664909362792969,0.11485548317432404,-1.4796617031097412,-0.0011453386396169662,0.05268557742238045,0.008170082233846188,Normal,Normal
146288498882,9.664909362792969,0.1052841991186142,-1.5514464378356934,-0.0005344913806766272,0.07040014863014221,0.004504998680204153,Normal,Normal
146288501318,9.686445236206055,0.07417750358581543,-1.6734803915023804,-0.00786465872079134,0.07711946964263916,0.002672456670552492,Normal,Normal
146288503753,9.72233772277832,0.064606212079525,-1.7859430313110352,7.635590736754239e-05,0.06184828653931618,-0.00038177953683771193,Normal,Normal
146288506188,9.72233772277832,0.04785645380616188,-1.8840487003326416,-0.00908635277301073,0.03497100621461868,-0.0009926267666742206,Normal,Normal
146288508623,9.712766647338867,0.03349951654672623,-1.922333836555481,-0.006642963737249374,0.0038177953101694584,-0.0016034740256145597,Normal,Normal
146288511058,9.681659698486328,0.0526420995593071,-1.8792630434036255,-0.0011453386396169662,-0.027946261689066887,-0.004657710436731577,Normal,Normal
146288513493,9.645767211914062,0.064606212079525,-1.776371717453003,-0.011529741808772087,-0.04749337583780289,-0.0028251686599105597,Normal,Normal
146288515928,9.63619613647461,0.08853443711996078,-1.651944875717163,-0.004199574701488018,-0.05360184609889984,-0.0028251686599105597,Normal,Normal
146288518363,9.638588905334473,0.11246266216039658,-1.5083755254745483,-0.006032116711139679,-0.04932591691613197,-0.004657710436731577,Normal,Normal
146288520799,9.679266929626465,0.12203395366668701,-1.4003994464874268,-0.0035887276753783226,-0.0328330397605896,-0.004046862944960594,Normal,Normal
146288523234,9.700801849365234,0.14356936514377594,-1.323829174041748,0.006184828467667103,-0.011453386396169662,-0.0034360159188508987,Normal,Normal
146288525669,9.746265411376953,0.1818545162677765,-1.3214362859725952,-0.0005344913806766272,0.014813045971095562,-0.0016034740256145597,Normal,Normal
146288528104,9.777372360229492,0.1866401731967926,-1.3549357652664185,0.008017370477318764,0.03008422814309597,0.002061609411612153,Normal,Normal
146288530539,9.791728973388672,0.20338992774486542,-1.4365909099578857,0.012293301522731781,0.04413371533155441,0.0008399150101467967,Normal,Normal
146288532974,9.786943435668945,0.1818545162677765,-1.561017632484436,0.007406522985547781,0.04352286830544472,0.002672456670552492,Normal,Normal
146288535409,9.755837440490723,0.16031911969184875,-1.695015788078308,0.011071606539189816,0.0325276181101799,0.002061609411612153,Normal,Normal
146288537844,9.763015747070312,0.13878370821475983,-1.831406593322754,0.008017370477318764,0.016645587980747223,0.0038941511884331703,Normal,Normal
146288540279,9.74387264251709,0.11006984114646912,-1.9175482988357544,0.006184828467667103,-0.005344913341104984,0.005726693198084831,Normal,Normal
146288542715,9.710372924804688,0.09092725813388824,-1.994417667388916,0.0037414394319057465,-0.024281177669763565,0.006948387715965509,Normal,Normal
146288545150,9.72951602935791,0.09092725813388824,-2.042274236679077,-0.0029778804164379835,-0.04199574887752533,0.006948387715965509,Normal,Normal
146288547585,9.765408515930176,0.08614161610603333,-2.0446670055389404,7.635590736754239e-05,-0.04932591691613197,0.006948387715965509,Normal,Normal
146288550020,9.798908233642578,0.0933200865983963,-1.9848463535308838,-0.0023670331574976444,-0.05115845799446106,0.0038941511884331703,Normal,Normal
146288552455,9.818050384521484,0.07657032459974289,-1.9103697538375854,-0.005421269219368696,-0.04199574887752533,0.002061609411612153,Normal,Normal
146288554890,9.791728973388672,0.07178468257188797,-1.7907286882400513,-0.00908635277301073,-0.02489202655851841,0.0008399150101467967,Normal,Normal
146288557325,9.739087104797363,0.10049854964017868,-1.651944875717163,-0.0035887276753783226,0.006261184345930815,-0.0016034740256145597,Normal,Normal
146288559760,9.739087104797363,0.09571290761232376,-1.572981834411621,-0.012751436792314053,0.03130592033267021,-0.0028251686599105597,Normal,Normal
146288562195,9.71515941619873,0.09571290761232376,-1.5083755254745483,-0.004810422193259001,0.05024218559265137,-0.004657710436731577,Normal,Normal
146288564630,9.703194618225098,0.1339980661869049,-1.5107684135437012,-0.006032116711139679,0.06429167091846466,-0.004046862944960594,Normal,Normal
146288567065,9.707980155944824,0.14835500717163086,-1.5346965789794922,-0.006032116711139679,0.06612421572208405,-0.005268557462841272,Normal,Normal
146288569501,9.684052467346191,0.1746760457754135,-1.5394822359085083,-0.004810422193259001,0.05207473039627075,-0.0064902519807219505,Normal,Normal
146288571936,9.664909362792969,0.18424734473228455,-1.568196177482605,0.00129805039614439,0.03558185324072838,-0.0064902519807219505,Normal,Normal
146288574371,9.631410598754883,0.1866401731967926,-1.5825530290603638,0.005573981441557407,0.009315420873463154,-0.0022143214009702206,Normal,Normal
146288576806,9.578767776489258,0.16510476171970367,-1.568196177482605,-0.0023670331574976444,-0.009620844386518002,0.0014507622690871358,Normal,Normal
146288579241,9.593125343322754,0.14356936514377594,-1.5705889463424683,0.006184828467667103,-0.031000498682260513,0.004504998680204153,Normal,Normal
146288581676,9.61944580078125,0.11964113265275955,-1.5490535497665405,0.007406522985547781,-0.03833066672086716,0.006948387715965509,Normal,Normal
146288584111,9.631410598754883,0.12203395366668701,-1.4988043308258057,0.01046075951308012,-0.04504998400807381,0.008780929259955883,Normal,Normal
146288586547,9.679266929626465,0.13639089465141296,-1.4557334184646606,0.005573981441557407,-0.03588727489113808,0.011835165321826935,Normal,Normal
146288588982,9.765408515930176,0.1339980661869049,-1.4485549926757812,0.0067956759594380856,-0.02367033064365387,0.01122431829571724,Normal,Normal
146288591417,9.844670295715332,0.16031911969184875,-1.5107684135437012,0.005573981441557407,-0.007788302376866341,0.006948387715965509,Normal,Normal
146288593852,9.92124080657959,0.14835500717163086,-1.5705889463424683,0.004963133949786425,0.0032069480512291193,0.004504998680204153,Normal,Normal
146288596287,9.942776679992676,0.13878370821475983,-1.6375880241394043,0.0031305921729654074,0.012980503961443901,-0.0022143214009702206,Normal,Normal
146288598722,9.926026344299316,0.12442677468061447,-1.7189439535140991,-0.0023670331574976444,0.013591351918876171,-0.004046862944960594,Normal,Normal
146288601157,9.885348320007324,0.11485548317432404,-1.7907286882400513,-0.00908635277301073,0.013591351918876171,-0.005268557462841272,Normal,Normal
146288603592,9.827920913696289,0.11006984114646912,-1.843370795249939,0.0019088976550847292,0.011147962883114815,-0.008322793990373611,Normal,Normal
146288606027,9.75105094909668,0.11485548317432404,-1.89840567111969,-0.0023670331574976444,0.00259610079228878,-0.008933641016483307,Normal,Normal
146288608463,9.719944953918457,0.12921242415905,-1.9319051504135132,-0.004199574701488018,-0.004123218823224306,-0.008933641016483307,Normal,Normal
146288610898,9.719944953918457,0.14356936514377594,-1.9680966138839722,-0.004199574701488018,-0.013896775431931019,-0.0064902519807219505,Normal,Normal
146288613333,9.727123260498047,0.15074782073497772,-1.970489501953125,-0.0005344913806766272,-0.02367033064365387,-0.0022143214009702206,Normal,Normal
146288615768,9.724730491638184,0.14835500717163086,-1.9055840969085693,-0.0029778804164379835,-0.02367033064365387,0.0014507622690871358,Normal,Normal
146288618203,9.688838005065918,0.1579262912273407,-1.781157374382019,0.0019088976550847292,-0.020005248486995697,0.0038941511884331703,Normal,Normal
146288620638,9.698409080505371,0.18424734473228455,-1.6447664499282837,0.0034360159188508987,-0.008093725889921188,0.0051158457063138485,Normal,Normal
146288623073,9.679266929626465,0.1986042857170105,-1.4988043308258057,0.0016034740256145597,0.012675080448389053,0.007559234742075205,Normal,Normal
146288625508,9.638588905334473,0.1986042857170105,-1.3716856241226196,0.007101099472492933,0.033443886786699295,0.007559234742075205,Normal,Normal
146288627943,9.648159980773926,0.18903298676013947,-1.3262219429016113,-0.0014507622690871358,0.05238015204668045,0.0038941511884331703,Normal,Normal
146288630379,9.6433744430542,0.1698904037475586,-1.342971682548523,0.0009926267666742206,0.06337540596723557,0.0032833039294928312,Normal,Normal
146288632814,9.667302131652832,0.15553347766399384,-1.4222339391708374,0.007101099472492933,0.05665608495473862,0.002061609411612153,Normal,Normal
146288635249,9.710372924804688,0.12442677468061447,-1.5514464378356934,0.00038177953683771193,0.04077405482530594,0.0014507622690871358,Normal,Normal
146288637684,9.7366943359375,0.10289137065410614,-1.6806588172912598,-0.004504998680204153,0.01695101149380207,0.0014507622690871358,Normal,Normal
146288640119,9.784550666809082,0.08374879509210587,-1.7883358001708984,-0.008780929259955883,-0.01847812905907631,0.002061609411612153,Normal,Normal
146288642554,9.815657615661621,0.06939185410737991,-1.831406593322754,-0.002061609411612153,-0.047798797488212585,0.002672456670552492,Normal,Normal
146288644989,9.808479309082031,0.07896314561367035,-1.7835501432418823,-0.0038941511884331703,-0.06551336497068405,0.00022906772210262716,Normal,Normal
146288647424,9.803693771362305,0.10289137065410614,-1.6686947345733643,-0.0051158457063138485,-0.07101099193096161,-0.0009926267666742206,Normal,Normal
146288649859,9.7366943359375,0.12921242415905,-1.4916257858276367,-0.009391776286065578,-0.05635065957903862,-0.0016034740256145597,Normal,Normal
146288652295,9.662516593933105,0.16749759018421173,-1.3405789136886597,-0.0051158457063138485,-0.025197450071573257,-0.005879404954612255,Normal,Normal
146288654730,9.657731056213379,0.1818545162677765,-1.292722463607788,-0.002672456670552492,0.012675080448389053,-0.009544488042593002,Normal,Normal
146288657165,9.676874160766602,0.19621145725250244,-1.342971682548523,0.0016034740256145597,0.03894151374697685,-0.010766183026134968,Normal,Normal
146288659600,9.707980155944824,0.19142581522464752,-1.4964114427566528,0.00038177953683771193,0.05360184609889984,-0.011987877078354359,Normal,Normal
146288662035,9.796515464782715,0.1986042857170105,-1.6806588172912598,0.007101099472492933,0.0462716780602932,-0.010155336000025272,Normal,Normal
146288664470,9.856635093688965,0.19142581522464752,-1.8792630434036255,0.008322793990373611,0.02489202655851841,-0.007101099472492933,Normal,Normal
146288666905,9.897313117980957,0.1698904037475586,-2.032702922821045,0.0064902519807219505,-0.005650337319821119,-0.0009926267666742206,Normal,Normal
146288669340,9.9140625,0.1698904037475586,-2.080559253692627,0.014431266114115715,-0.036192700266838074,0.0032833039294928312,Normal,Normal
146288671775,9.827920913696289,0.17706887423992157,-2.0303099155426025,0.011377030052244663,-0.05757235363125801,0.007559234742075205,Normal,Normal
146288674210,9.763015747070312,0.17706887423992157,-1.896012783050537,0.004046862944960594,-0.06123743951320648,0.01122431829571724,Normal,Normal
146288676646,9.660123825073242,0.1579262912273407,-1.7261223793029785,0.007101099472492933,-0.04413371533155441,0.01122431829571724,Normal,Normal
146288679081,9.607481956481934,0.15314064919948578,-1.5801602602005005,0.0028251686599105597,-0.015423892997205257,0.014278554357588291,Normal,Normal
146288681516,9.617053031921387,0.12203395366668701,-1.5035899877548218,-0.0008399150101467967,0.019394399598240852,0.011835165321826935,Normal,Normal
146288683951,9.633803367614746,0.11485548317432404,-1.4940186738967896,-0.004504998680204153,0.04810422286391258,0.007559234742075205,Normal,Normal
146288686386,9.669695854187012,0.10767702013254166,-1.5394822359085083,-0.004504998680204153,0.06642963737249374,0.002672456670552492,Normal,Normal
146288688821,9.71515941619873,0.0933200865983963,-1.623231053352356,-0.01122431829571724,0.06826218217611313,0.0008399150101467967,Normal,Normal
146288691256,9.746265411376953,0.08374879509210587,-1.7117655277252197,-0.010002624243497849,0.05543438717722893,-0.0022143214009702206,Normal,Normal
146288693691,9.798908233642578,0.08614161610603333,-1.7883358001708984,-0.011835165321826935,0.025502873584628105,-0.005879404954612255,Normal,Normal
146288696126,9.8207426071167,0.09571290761232376,-1.800299882888794,-0.014889402315020561,-0.0038177953101694584,-0.005268557462841272,Normal,Normal
146288698562,9.76062297821045,0.10767702013254166,-1.7333009243011475,-0.0130568603053689,-0.03497100621461868,-0.007101099472492933,Normal,Normal
146288700997,9.707980155944824,0.13878370821475983,-1.6375880241394043,-0.006337540224194527,-0.04963133856654167,-0.007711946498602629,Normal,Normal
146288703432,9.667302131652832,0.15314064919948578,-1.5442678928375244,-0.009391776286065578,-0.05635065957903862,-0.007101099472492933,Normal,Normal
146288705867,9.681659698486328,0.14835500717163086,-1.4964114427566528,0.004046862944960594,-0.05085303261876106,-0.005268557462841272,Normal,Normal
146288708302,9.693623542785645,0.1579262912273407,-1.4892330169677734,-0.0008399150101467967,-0.039857782423496246,-0.004046862944960594,Normal,Normal
146288710737,9.710372924804688,0.17228323221206665,-1.5203397274017334,0.00038177953683771193,-0.01969982497394085,-0.0009926267666742206,Normal,Normal
146288713172,9.719944953918457,0.17228323221206665,-1.55623197555542,0.01748550310730934,-0.004428642801940441,-0.0022143214009702206,Normal,Normal
146288715607,9.734301567077637,0.1818545162677765,-1.5897315740585327,0.010155336000025272,0.01695101149380207,0.0008399150101467967,Normal,Normal
146288718042,9.763015747070312,0.19142581522464752,-1.6663018465042114,0.012598725035786629,0.02367033064365387,0.002672456670552492,Normal,Normal
146288720477,9.75344467163086,0.17228323221206665,-1.7309080362319946,0.01382041908800602,0.033443886786699295,0.0038941511884331703,Normal,Normal
146288722913,9.707980155944824,0.15553347766399384,-1.7955143451690674,0.012598725035786629,0.029167955741286278,0.0038941511884331703,Normal,Normal
146288725348,9.645767211914062,0.15074782073497772,-1.8242281675338745,0.011987877078354359,0.026724567636847496,0.0032833039294928312,Normal,Normal
146288727783,9.62901782989502,0.1698904037475586,-1.8553348779678345,0.007711946498602629,0.014507622458040714,0.002061609411612153,Normal,Normal
146288730218,9.657731056213379,0.18424734473228455,-1.9151554107666016,0.0009926267666742206,0.005955760832875967,0.00022906772210262716,Normal,Normal
146288732653,9.707980155944824,0.19142581522464752,-1.958226203918457,0.0028251686599105597,-0.014202198944985867,-0.0016034740256145597,Normal,Normal
146288735088,9.748658180236816,0.2105683982372284,-1.9800606966018677,-0.002672456670552492,-0.027029991149902344,-0.0009926267666742206,Normal,Normal
146288737523,9.777372360229492,0.1866401731967926,-1.9752750396728516,-0.006948387715965509,-0.04107947647571564,-0.0022143214009702206,Normal,Normal
146288739958,9.782157897949219,0.11964113265275955,-1.92951238155365,-0.009391776286065578,-0.04718795046210289,-0.0016034740256145597,Normal,Normal
146288742393,9.794121742248535,0.08135596662759781,-1.8290138244628906,-0.012446013279259205,-0.04230117425322533,0.002672456670552492,Normal,Normal
146288744829,9.724730491638184,0.04546362906694412,-1.690230131149292,-0.010613471269607544,-0.030695075169205666,0.006948387715965509,Normal,Normal
146288747264,9.710372924804688,0.04785645380616188,-1.6088740825653076,-0.015500249341130257,-0.0050394898280501366,0.010613471269607544,Normal,Normal
146288749699,9.741479873657227,0.07178468257188797,-1.5586248636245728,-0.01916533336043358,0.01817270554602146,0.010002624243497849,Normal,Normal
146288752134,9.748658180236816,0.09571290761232376,-1.5346965789794922,-0.0051158457063138485,0.04016320779919624,0.006948387715965509,Normal,Normal
146288754569,9.782157897949219,0.13878370821475983,-1.5753746032714844,-0.014889402315020561,0.04993676394224167,-0.00038177953683771193,Normal,Normal
146288757004,9.815657615661621,0.16271193325519562,-1.659123420715332,-0.0032833039294928312,0.050547610968351364,-0.005879404954612255,Normal,Normal
146288759439,9.72233772277832,0.18424734473228455,-1.6878372430801392,0.0028251686599105597,0.041384901851415634,-0.009544488042593002,Normal,Normal
146288761874,9.559625625610352,0.16510476171970367,-1.6998014450073242,-0.002672456670552492,0.03405473381280899,-0.011987877078354359,Normal,Normal
146288764309,9.447162628173828,0.14356936514377594,-1.750050663948059,0.010155336000025272,0.012675080448389053,-0.013209572061896324,Normal,Normal
146288766745,9.404091835021973,0.11246266216039658,-1.8242281675338745,0.007101099472492933,0.0016798300202935934,-0.010155336000025272,Normal,Normal
146288769180,9.432806015014648,0.06699903309345245,-1.8840487003326416,0.007101099472492933,-0.02641914412379265,-0.0022143214009702206,Normal,Normal
146288771615,9.588339805603027,0.0526420995593071,-1.9486548900604248,0.01382041908800602,-0.05085303261876106,0.0051158457063138485,Normal,Normal
146288774050,9.767801284790039,0.09810572862625122,-1.9151554107666016,0.005879404954612255,-0.06917845457792282,0.010002624243497849,Normal,Normal
146288776485,9.861420631408691,0.17228323221206665,-1.77397882938385,0.010766183026134968,-0.07467607408761978,0.011835165321826935,Normal,Normal
146288778920,9.851848602294922,0.2512463629245758,-1.5442678928375244,0.010155336000025272,-0.05635065957903862,0.010613471269607544,Normal,Normal
146288781355,9.810872077941895,0.2799602448940277,-1.3621143102645874,0.005268557462841272,-0.016645587980747223,0.0051158457063138485,Normal,Normal
146288783790,9.815657615661621,0.2560320198535919,-1.287936806678772,0.009544488042593002,0.020616095513105392,-0.0009926267666742206,Normal,Normal
146288786226,9.772586822509766,0.22013968229293823,-1.319043517112732,-0.0014507622690871358,0.05665608495473862,-0.004046862944960594,Normal,Normal
146288788661,9.691230773925781,0.16510476171970367,-1.4581263065338135,0.0009926267666742206,0.07864658534526825,-0.005268557462841272,Normal,Normal
146288791096,9.640981674194336,0.13160525262355804,-1.6926229000091553,-0.002672456670552492,0.07864658534526825,-0.00038177953683771193,Normal,Normal
146288793531,9.645767211914062,0.12681959569454193,-1.9510477781295776,-0.010613471269607544,0.06154286116361618,-0.00038177953683771193,Normal,Normal
146288795966,9.674481391906738,0.12681959569454193,-2.1954147815704346,-0.004504998680204153,0.021226942539215088,-0.00038177953683771193,Normal,Normal
146288798401,9.798908233642578,0.12442677468061447,-2.4059832096099854,-0.014278554357588291,-0.02764083817601204,0.0038941511884331703,Normal,Normal
146288800836,9.861420631408691,0.10767702013254166,-2.444268226623535,-0.014278554357588291,-0.07834116369485855,0.004504998680204153,Normal,Normal
146288803271,9.827920913696289,0.09810572862625122,-2.283949136734009,-0.0130568603053689,-0.10888352245092392,0.008170082233846188,Normal,Normal
146288805706,9.691230773925781,0.1052841991186142,-1.9438693523406982,-0.010002624243497849,-0.10582929104566574,0.006948387715965509,Normal,Normal
146288808142,9.499805450439453,0.11485548317432404,-1.532303810119629,-0.011835165321826935,-0.06734590977430344,0.0032833039294928312,Normal,Normal
146288810577,9.416056632995605,0.1459621787071228,-1.2233306169509888,-0.010002624243497849,-0.0068720318377017975,0.002061609411612153,Normal,Normal
146288813012,9.461520195007324,0.18903298676013947,-1.0821540355682373,-0.0032833039294928312,0.05665608495473862,-0.0022143214009702206,Normal,Normal
146288815447,9.547661781311035,0.20578274130821228,-1.1228320598602295,0.004046862944960594,0.10002623498439789,-0.004657710436731577,Normal,Normal
146288817882,9.676874160766602,0.20817556977272034,-1.3334003686904907,0.0034360159188508987,0.11407572776079178,-0.005268557462841272,Normal,Normal
146288820317,9.849455833435059,0.1866401731967926,-1.628016710281372,0.005268557462841272,0.0975828468799591,-0.005879404954612255,Normal,Normal
146288822752,9.969097137451172,0.16031911969184875,-1.9127626419067383,0.010766183026134968,0.04871506989002228,-0.004046862944960594,Normal,Normal
146288825187,10.019346237182617,0.10767702013254166,-2.080559253692627,0.007101099472492933,-0.0068720318377017975,0.0038941511884331703,Normal,Normal
146288827622,9.918848037719727,0.07657032459974289,-2.080559253692627,0.015042114071547985,-0.06245913356542587,0.009391776286065578,Normal,Normal
146288830057,9.755837440490723,0.05742774158716202,-1.9657038450241089,0.0064902519807219505,-0.08811471611261368,0.012446013279259205,Normal,Normal
146288832492,9.61944580078125,0.06699903309345245,-1.7787644863128662,0.00038177953683771193,-0.08811471611261368,0.016111096367239952,Normal,Normal
146288834928,9.49501895904541,0.07417750358581543,-1.5514464378356934,0.007711946498602629,-0.06306997686624527,0.0130568603053689,Normal,Normal
146288837363,9.432806015014648,0.08853443711996078,-1.4270195960998535,0.0016034740256145597,-0.01847812905907631,0.010613471269607544,Normal,Normal
146288839798,9.468698501586914,0.11006984114646912,-1.4126626253128052,-0.0051158457063138485,0.02367033064365387,0.0051158457063138485,Normal,Normal
146288842233,9.581160545349121,0.1459621787071228,-1.5131611824035645,-0.0008399150101467967,0.05604523420333862,-0.0009926267666742206,Normal,Normal
146288844668,9.719944953918457,0.1339980661869049,-1.690230131149292,-0.010613471269607544,0.06765133142471313,-0.004046862944960594,Normal,Normal
146288847103,9.849455833435059,0.11724831163883209,-1.903191328048706,-0.010002624243497849,0.05482354015111923,-0.007711946498602629,Normal,Normal
146288849538,9.92841911315918,0.11246266216039658,-2.0374884605407715,-0.002672456670552492,0.025502873584628105,-0.007101099472492933,Normal,Normal
146288851973,9.940383911132812,0.09571290761232376,-2.049452543258667,-0.010613471269607544,-0.012369656935334206,-0.009544488042593002,Normal,Normal
146288854408,9.875777244567871,0.10049854964017868,-1.9657038450241089,-0.009391776286065578,-0.04107947647571564,-0.0034360159188508987,Normal,Normal
146288856844,9.741479873657227,0.12921242415905,-1.77397882938385,0.004657710436731577,-0.05085303261876106,-0.0016034740256145597,Normal,Normal
146288859279,9.669695854187012,0.1579262912273407,-1.6040884256362915,-0.006337540224194527,-0.045355409383773804,-0.0009926267666742206,Normal,Normal
146288861714,9.63619613647461,0.18424734473228455,-1.4796617031097412,0.0009926267666742206,-0.029473381116986275,0.002061609411612153,Normal,Normal
146288864149,9.61226749420166,0.19381862878799438,-1.4413765668869019,0.005879404954612255,-0.0068720318377017975,0.0032833039294928312,Normal,Normal
146288866584,9.621838569641113,0.1746760457754135,-1.4892330169677734,0.0009926267666742206,0.017561858519911766,0.004504998680204153,Normal,Normal
146288869019,9.676874160766602,0.15314064919948578,-1.55623197555542,0.011377030052244663,0.029778804630041122,0.008780929259955883,Normal,Normal
146288871454,9.72233772277832,0.12681959569454193,-1.6663018465042114,0.010155336000025272,0.037108972668647766,0.008780929259955883,Normal,Normal
146288873889,9.741479873657227,0.10767702013254166,-1.7572290897369385,0.005879404954612255,0.03588727489113808,0.010002624243497849,Normal,Normal
146288876324,9.774979591369629,0.09810572862625122,-1.8242281675338745,0.008322793990373611,0.021226942539215088,0.010002624243497849,Normal,Normal
146288878760,9.779765129089355,0.08614161610603333,-1.8553348779678345,0.00038177953683771193,0.009009997360408306,0.007559234742075205,Normal,Normal
146288881195,9.796515464782715,0.09092725813388824,-1.8481563329696655,0.0034360159188508987,-0.009315420873463154,0.006948387715965509,Normal,Normal
146288883630,9.774979591369629,0.10289137065410614,-1.8026927709579468,-0.002061609411612153,-0.01847812905907631,0.0014507622690871358,Normal,Normal
146288886065,9.75344467163086,0.09092725813388824,-1.7644076347351074,-0.002672456670552492,-0.02214321307837963,-0.0009926267666742206,Normal,Normal
146288888500,9.739087104797363,0.08853443711996078,-1.7309080362319946,0.00038177953683771193,-0.021532366052269936,-0.005268557462841272,Normal,Normal
146288890935,9.746265411376953,0.07417750358581543,-1.7189439535140991,-0.009391776286065578,-0.01847812905907631,-0.005879404954612255,Normal,Normal
146288893370,9.786943435668945,0.06939185410737991,-1.7572290897369385,-0.006337540224194527,-0.014202198944985867,-0.007101099472492933,Normal,Normal
146288895805,9.830313682556152,0.06939185410737991,-1.7955143451690674,-0.004504998680204153,-0.016034740954637527,-0.004046862944960594,Normal,Normal
146288898240,9.808479309082031,0.07657032459974289,-1.7691932916641235,-0.01122431829571724,-0.01175880990922451,-0.0022143214009702206,Normal,Normal
146288900676,9.772586822509766,0.08135596662759781,-1.709372639656067,-0.004504998680204153,-0.0038177953101694584,0.0014507622690871358,Normal,Normal
146288903111,9.727123260498047,0.0933200865983963,-1.6304094791412354,-0.009391776286065578,0.008399149402976036,0.0014507622690871358,Normal,Normal
146288905546,9.657731056213379,0.14117653667926788,-1.5490535497665405,-0.0038941511884331703,0.021226942539215088,0.002672456670552492,Normal,Normal
146288907981,9.60508918762207,0.1818545162677765,-1.4844473600387573,0.007101099472492933,0.033443886786699295,-0.00038177953683771193,Normal,Normal
146288910416,9.562018394470215,0.19621145725250244,-1.501197099685669,0.00038177953683771193,0.04077405482530594,-0.0009926267666742206,Normal,Normal
146288912851,9.562018394470215,0.17946170270442963,-1.572981834411621,0.007711946498602629,0.04077405482530594,-0.0022143214009702206,Normal,Normal
146288915286,9.638588905334473,0.14117653667926788,-1.7165511846542358,0.008322793990373611,0.023059483617544174,-0.0009926267666742206,Normal,Normal
146288917721,9.731908798217773,0.08853443711996078,-1.8816559314727783,-0.00022906772210262716,-0.0007635590736754239,0.00022906772210262716,Normal,Normal
146288920157,9.847063064575195,0.064606212079525,-2.0374884605407715,0.011377030052244663,-0.037414394319057465,0.005726693198084831,Normal,Normal
146288922592,9.957133293151855,0.059820566326379776,-2.1403799057006836,0.007101099472492933,-0.06795676052570343,0.0051158457063138485,Normal,Normal
146288925027,10.000204086303711,0.07417750358581543,-2.111665964126587,0.0022143214009702206,-0.08689302206039429,0.006337540224194527,Normal,Normal
146288927462,9.926026344299316,0.10049854964017868,-2.0063817501068115,0.007101099472492933,-0.08750387281179428,0.007559234742075205,Normal,Normal
146288929897,9.851848602294922,0.10767702013254166,-1.8768702745437622,-0.0014507622690871358,-0.06673506647348404,0.005726693198084831,Normal,Normal
146288932332,9.791728973388672,0.08135596662759781,-1.745265007019043,-0.006337540224194527,-0.03008422814309597,0.0051158457063138485,Normal,Normal
146288934767,9.72951602935791,0.059820566326379776,-1.6854444742202759,-0.008780929259955883,0.010842538438737392,0.0014507622690871358,Normal,Normal
146288937202,9.669695854187012,0.064606212079525,-1.7069798707962036,-0.01122431829571724,0.050547610968351364,-0.0028251686599105597,Normal,Normal
