time_usec,acc_x,acc_y,acc_z,rot_x,rot_y,rot_z,label,type
144210329690,9.875777244567871,-0.02632104977965355,-1.628016710281372,0.02993151545524597,-0.09994988143444061,-0.017027366906404495,Normal,Normal
144210332125,9.803693771362305,0.0,-1.4868401288986206,0.00916270911693573,-0.13598987460136414,-0.010308047756552696,Normal,Normal
144210334561,9.72233772277832,0.05024927482008934,-1.2065808773040771,-0.016492875292897224,-0.1396549493074417,-0.004199574701488018,Normal,Normal
144210336996,9.674481391906738,0.10049854964017868,-0.9266205430030823,-0.031153209507465363,-0.10544750839471817,0.0019088976550847292,Normal,Normal
144210339431,9.669695854187012,0.17706887423992157,-0.7253243923187256,-0.047646086663007736,-0.057801421731710434,0.0037414394319057465,Normal,Normal
144210341866,9.655338287353516,0.17228323221206665,-0.6032904386520386,-0.06352811306715012,0.0038941511884331703,0.004963133949786425,Normal,Normal
144210344302,9.652945518493652,0.13160525262355804,-0.612861692905426,-0.06902574002742767,0.05215108394622803,0.0067956759594380856,Normal,Normal
144210346737,9.652945518493652,0.07417750358581543,-0.7229315638542175,-0.06047387793660164,0.08574768155813217,0.01046075951308012,Normal,Normal
144210349172,9.633803367614746,0.004785645287483931,-0.8715856671333313,-0.06902574002742767,0.09185615926980972,0.013514995574951172,Normal,Normal
144210351607,9.652945518493652,-0.0526420995593071,-1.036690354347229,-0.045202698558568954,0.07475243508815765,0.018401773646473885,Normal,Normal
144210354042,9.705587387084961,-0.08853443711996078,-1.158724308013916,-0.03542914241552353,0.03871244564652443,0.023288551717996597,Normal,Normal
144210356478,9.739087104797363,-0.10049854964017868,-1.1802598237991333,-0.024433890357613564,-0.0016034740256145597,0.023899398744106293,Normal,Normal
144210358913,9.794121742248535,-0.08853443711996078,-1.098903775215149,0.0006108472589403391,-0.043141089379787445,0.02023431472480297,Normal,Normal
144210361348,9.861420631408691,-0.08614161610603333,-0.9744769930839539,0.005497625097632408,-0.07307260483503342,0.012293301522731781,Normal,Normal
144210363783,9.930811882019043,-0.14356936514377594,-0.8476574420928955,0.020157959312200546,-0.07918107509613037,0.00862821750342846,Normal,Normal
144210366219,10.002596855163574,-0.20099709928035736,-0.7061817646026611,0.03787253051996231,-0.07307260483503342,0.004352286923676729,Normal,Normal
144210368654,10.000204086303711,-0.26560330390930176,-0.5697908997535706,0.04337015375494957,-0.04619532451033592,0.0019088976550847292,Normal,Normal
144210371089,10.028918266296387,-0.28504499793052673,-0.4668995141983032,0.04031591862440109,-0.008322793990373611,-0.0017561858985573053,Normal,Normal
144210373524,10.06002426147461,-0.2392822653055191,-0.41186460852622986,0.04092676565051079,0.03687990456819534,-0.004810422193259001,Normal,Normal
144210375960,10.02413272857666,-0.16031911969184875,-0.4094717800617218,0.03542914241552353,0.07291989028453827,-0.010918894782662392,Normal,Normal
144210378395,9.937990188598633,-0.062213387340307236,-0.48364928364753723,0.021379653364419937,0.10346225649118423,-0.018249060958623886,Normal,Normal
144210380830,9.844670295715332,0.014356935396790504,-0.6607181429862976,0.021990500390529633,0.11201411485671997,-0.026190076023340225,Normal,Normal
144210383265,9.75344467163086,0.07417750358581543,-0.9170492887496948,0.014049487188458443,0.09796462953090668,-0.031076854094862938,Normal,Normal
144210385701,9.691230773925781,0.08614161610603333,-1.194616675376892,0.009773556143045425,0.060092099010944366,-0.03168770298361778,Normal,Normal
144210388136,9.645767211914062,0.059820566326379776,-1.4246268272399902,-0.004886778071522713,0.002672456670552492,-0.029855160042643547,Normal,Normal
144210390571,9.640981674194336,0.07657032459974289,-1.5825530290603638,-0.005497625097632408,-0.05963396281003952,-0.0231358390301466,Normal,Normal
144210393006,9.679266929626465,0.07896314561367035,-1.6304094791412354,-0.012827792204916477,-0.11338852345943451,-0.013362283818423748,Normal,Normal
144210395441,9.727123260498047,0.08135596662759781,-1.5227324962615967,-0.029320668429136276,-0.14759597182273865,-0.0017561858985573053,Normal,Normal
144210397877,9.763015747070312,0.09810572862625122,-1.2735798358917236,-0.020157959312200546,-0.15065020322799683,0.012904148548841476,Normal,Normal
144210400312,9.813264846801758,0.09810572862625122,-0.9529415965080261,-0.030542362481355667,-0.12255123257637024,0.022066857665777206,Normal,Normal
144210402747,9.774979591369629,0.06699903309345245,-0.6343970894813538,-0.02748812735080719,-0.06513158977031708,0.025121092796325684,Normal,Normal
144210405183,9.758230209350586,0.02392822690308094,-0.4166502356529236,-0.030542362481355667,0.008170082233846188,0.03061871975660324,Normal,Normal
144210407618,9.75344467163086,-0.04546362906694412,-0.2994019389152527,-0.023212196305394173,0.08269345015287399,0.03184041380882263,Normal,Normal
144210410053,9.724730491638184,-0.10049854964017868,-0.35443684458732605,-0.018936265259981155,0.13828055560588837,0.03306210786104202,Normal,Normal
144210412488,9.746265411376953,-0.11964113265275955,-0.5841478109359741,-0.008551862090826035,0.1614927500486374,0.025731941685080528,Normal,Normal
144210414923,9.856635093688965,-0.12442677468061447,-0.890728235244751,-0.006719320081174374,0.14988665282726288,0.014125842601060867,Normal,Normal
144210417359,9.947562217712402,-0.13160525262355804,-1.1850453615188599,0.004886778071522713,0.09918632358312607,0.01046075951308012,Normal,Normal
144210419794,9.978668212890625,-0.14835500717163086,-1.378864049911499,0.006719320081174374,0.0295497365295887,-0.0035887276753783226,Normal,Normal
144210422229,10.004989624023438,-0.15553347766399384,-1.4318052530288696,0.011606098152697086,-0.043141089379787445,-0.013362283818423748,Normal,Normal
144210424664,9.961918830871582,-0.15553347766399384,-1.3142578601837158,0.010995250195264816,-0.09933903813362122,-0.01763821393251419,Normal,Normal
144210427100,9.882955551147461,-0.1818545162677765,-1.0821540355682373,0.012827792204916477,-0.12988139688968658,-0.020692450925707817,Normal,Normal
144210429535,9.825528144836426,-0.1698904037475586,-0.7636095285415649,0.02076880633831024,-0.1292705535888672,-0.020692450925707817,Normal,Normal
144210431970,9.770194053649902,-0.13639089465141296,-0.4573282301425934,0.015271181240677834,-0.08712209016084671,-0.01885990984737873,Normal,Normal
144210434405,9.767801284790039,-0.08853443711996078,-0.24646073579788208,0.017714571207761765,-0.03214583545923233,-0.017027366906404495,Normal,Normal
144210436841,9.777372360229492,-0.016749758273363113,-0.1866401731967926,0.014049487188458443,0.03199312463402748,-0.013362283818423748,Normal,Normal
144210439276,9.777372360229492,0.04785645380616188,-0.26081767678260803,0.008551862090826035,0.08330429345369339,-0.010308047756552696,Normal,Normal
144210441711,9.796515464782715,0.10049854964017868,-0.4621138870716095,0.010995250195264816,0.11201411485671997,-0.008475505746901035,Normal,Normal
144210444146,9.791728973388672,0.12681959569454193,-0.7636095285415649,0.0006108472589403391,0.11629004776477814,-0.00786465872079134,Normal,Normal
144210446581,9.75105094909668,0.11246266216039658,-1.0941181182861328,0.0036650835536420345,0.08513683825731277,-0.004199574701488018,Normal,Normal
144210449016,9.698409080505371,0.07657032459974289,-1.3668999671936035,-0.004886778071522713,0.0423775278031826,7.635590736754239e-05,Normal,Normal
144210451452,9.6433744430542,0.035892341285943985,-1.5251253843307495,-0.0024433890357613564,-0.021150587126612663,0.0067956759594380856,Normal,Normal
144210453887,9.61226749420166,-0.007178467698395252,-1.5418751239776611,-0.004275931045413017,-0.07185091078281403,0.013514995574951172,Normal,Normal
144210456322,9.633803367614746,-0.03349951654672623,-1.4581263065338135,-0.01588202826678753,-0.11033428460359573,0.018401773646473885,Normal,Normal
144210458757,9.696016311645508,-0.038285162299871445,-1.2855439186096191,-0.01832541823387146,-0.11949699372053146,0.023288551717996597,Normal,Normal
144210461192,9.827920913696289,-0.0526420995593071,-1.0845468044281006,-0.013438640162348747,-0.11033428460359573,0.022066857665777206,Normal,Normal
144210463628,9.933204650878906,-0.1052841991186142,-0.8811569213867188,-0.021379653364419937,-0.0755159929394722,0.019623467698693275,Normal,Normal
144210466063,10.01456069946289,-0.14117653667926788,-0.6966105103492737,-0.014660334214568138,-0.03092414326965809,0.015958385542035103,Normal,Normal
144210468498,10.074381828308105,-0.17228323221206665,-0.5602195858955383,-0.022601349279284477,0.026495499536395073,0.01046075951308012,Normal,Normal
144210470933,10.076774597167969,-0.17228323221206665,-0.49322056770324707,-0.014049487188458443,0.07536327838897705,0.004352286923676729,Normal,Normal
144210473369,10.05284595489502,-0.1459621787071228,-0.5003990530967712,-0.007941014133393764,0.10712733864784241,-0.0017561858985573053,Normal,Normal
144210475804,9.995418548583984,-0.10049854964017868,-0.5841478109359741,-0.007941014133393764,0.12239851802587509,-0.010918894782662392,Normal,Normal
144210478239,9.937990188598633,-0.05742774158716202,-0.7301099896430969,-0.0,0.11140327155590057,-0.019470756873488426,Normal,Normal
144210480674,9.839884757995605,-0.02153540402650833,-0.8691928386688232,0.008551862090826035,0.08452598750591278,-0.024968381971120834,Normal,Normal
144210483110,9.746265411376953,-0.0023928226437419653,-1.0007981061935425,0.013438640162348747,0.03504735976457596,-0.028633465990424156,Normal,Normal
144210485545,9.655338287353516,-0.009571290574967861,-1.0917253494262695,0.013438640162348747,-0.01382041908800602,-0.02680092304944992,Normal,Normal
144210487980,9.571589469909668,-0.014356935396790504,-1.1132607460021973,0.025655584409832954,-0.059023115783929825,-0.020692450925707817,Normal,Normal
144210490415,9.573982238769531,-0.040677983313798904,-1.074975609779358,0.020157959312200546,-0.0877329409122467,-0.012140588834881783,Normal,Normal
144210492850,9.61944580078125,-0.04546362906694412,-0.9768698215484619,0.029320668429136276,-0.10300412029027939,0.000687203137204051,Normal,Normal
144210495285,9.660123825073242,-0.038285162299871445,-0.8282157182693481,0.023823043331503868,-0.09261971712112427,0.009239064529538155,Normal,Normal
144210497721,9.76062297821045,-0.009571290574967861,-0.6822535395622253,0.012216945178806782,-0.06635328382253647,0.015958385542035103,Normal,Normal
144210500156,9.832706451416016,-0.0023928226437419653,-0.5985047817230225,0.007941014133393764,-0.019928891211748123,0.01901262067258358,Normal,Normal
144210502591,9.89970588684082,0.038285162299871445,-0.5626124143600464,0.0030542362947016954,0.02160872146487236,0.01901262067258358,Normal,Normal
144210505026,9.911669731140137,0.02871387079358101,-0.5985047817230225,-0.009773556143045425,0.06314633786678314,0.015347537584602833,Normal,Normal
144210507461,9.916455268859863,0.014356935396790504,-0.7540382146835327,-0.004275931045413017,0.08635853230953217,0.011071606539189816,Normal,Normal
144210509897,9.90688419342041,-0.01196411345154047,-0.9457631707191467,-0.021379653364419937,0.08696937561035156,0.0031305921729654074,Normal,Normal
144210512332,9.868598937988281,-0.059820566326379776,-1.1491531133651733,-0.030542362481355667,0.06497887521982193,0.0019088976550847292,Normal,Normal
144210514767,9.832706451416016,-0.08374879509210587,-1.319043517112732,-0.021379653364419937,0.028938889503479004,-0.0029778804164379835,Normal,Normal
144210517202,9.796515464782715,-0.08135596662759781,-1.3764712810516357,-0.022601349279284477,-0.010766183026134968,-0.004810422193259001,Normal,Normal
144210519638,9.794121742248535,-0.08135596662759781,-1.3357932567596436,-0.033596597611904144,-0.05169294774532318,-0.005421269219368696,Normal,Normal
144210522073,9.808479309082031,-0.07896314561367035,-1.220937728881836,-0.007330167107284069,-0.0761268362402916,-0.005421269219368696,Normal,Normal
144210524508,9.815657615661621,-0.07657032459974289,-1.017547845840454,-0.014049487188458443,-0.09078717231750488,-0.006032116711139679,Normal,Normal
144210526944,9.796515464782715,-0.07896314561367035,-0.7947162389755249,-0.015271181240677834,-0.0749051421880722,-0.004810422193259001,Normal,Normal
144210529379,9.803693771362305,-0.08374879509210587,-0.5697908997535706,0.0024433890357613564,-0.04741701856255531,-0.004810422193259001,Normal,Normal
144210531814,9.835099220275879,-0.059820566326379776,-0.4286143481731415,0.0024433890357613564,-0.004657710436731577,-0.0029778804164379835,Normal,Normal
144210534249,9.856635093688965,-0.04307080805301666,-0.3568296730518341,0.01588202826678753,0.03504735976457596,-0.0005344913806766272,Normal,Normal
144210536685,9.861420631408691,-0.004785645287483931,-0.37597227096557617,0.01588202826678753,0.07291989028453827,-0.0017561858985573053,Normal,Normal
144210539120,9.861420631408691,0.031106693670153618,-0.4980062246322632,0.014049487188458443,0.09002361446619034,-0.0023670331574976444,Normal,Normal
144210541555,9.847063064575195,0.05742774158716202,-0.6631109714508057,0.023823043331503868,0.09246700257062912,-0.007253811229020357,Normal,Normal
144210543990,9.813264846801758,0.07178468257188797,-0.8787640929222107,0.021379653364419937,0.07597412914037704,-0.006642963737249374,Normal,Normal
144210546425,9.758230209350586,0.05024927482008934,-1.048654556274414,0.01832541823387146,0.0429883748292923,-0.006032116711139679,Normal,Normal
144210548861,9.679266929626465,-0.007178467698395252,-1.165902853012085,0.017714571207761765,0.00022906772210262716,-0.0029778804164379835,Normal,Normal
144210551296,9.660123825073242,-0.03349951654672623,-1.2376874685287476,0.004886778071522713,-0.0364217683672905,0.00129805039614439,Normal,Normal
144210553731,9.672088623046875,-0.0526420995593071,-1.2281162738800049,0.012216945178806782,-0.07246175408363342,0.007406522985547781,Normal,Normal
144210556166,9.719944953918457,-0.05503492057323456,-1.165902853012085,-0.006719320081174374,-0.08406785130500793,0.012293301522731781,Normal,Normal
144210558602,9.839884757995605,-0.06699903309345245,-1.0821540355682373,-0.010995250195264816,-0.0889546349644661,0.013514995574951172,Normal,Normal
144210561037,9.942776679992676,-0.062213387340307236,-0.9625129103660583,-0.015271181240677834,-0.0755159929394722,0.012904148548841476,Normal,Normal
144210563472,10.040882110595703,-0.04785645380616188,-0.8476574420928955,-0.022601349279284477,-0.04680617153644562,0.009239064529538155,Normal,Normal
144210565907,10.091131210327148,-0.04307080805301666,-0.7516453862190247,-0.02748812735080719,-0.015652960166335106,0.004963133949786425,Normal,Normal
144210568342,10.076774597167969,-0.05024927482008934,-0.6918248534202576,-0.02504473738372326,0.019776180386543274,0.0019088976550847292,Normal,Normal
144210570777,9.995418548583984,-0.03349951654672623,-0.6894320249557495,-0.025655584409832954,0.04909684881567955,-0.004810422193259001,Normal,Normal
144210573213,9.926026344299316,-0.03349951654672623,-0.7277171611785889,-0.023212196305394173,0.0692548081278801,-0.00786465872079134,Normal,Normal
144210575648,9.8207426071167,-0.02153540402650833,-0.8114659786224365,-0.01038440316915512,0.07291989028453827,-0.013362283818423748,Normal,Normal
144210578083,9.705587387084961,0.0023928226437419653,-0.9170492887496948,-0.01038440316915512,0.06436803191900253,-0.014583977870643139,Normal,Normal
144210580518,9.63619613647461,0.0023928226437419653,-1.0031908750534058,-0.0012216945178806782,0.04115583375096321,-0.013973130844533443,Normal,Normal
144210582954,9.566803932189941,0.0023928226437419653,-1.079761266708374,0.012827792204916477,0.012446013279259205,-0.012751436792314053,Normal,Normal
144210585389,9.550054550170898,0.0,-1.1060823202133179,0.015271181240677834,-0.019318044185638428,-0.006642963737249374,Normal,Normal
144210587824,9.576375007629395,0.007178467698395252,-1.0893324613571167,0.022601349279284477,-0.04802786558866501,-0.0017561858985573053,Normal,Normal
144210590259,9.6433744430542,-0.03349951654672623,-1.0223335027694702,0.021379653364419937,-0.06146650388836861,0.0037414394319057465,Normal,Normal
144210592695,9.717552185058594,-0.04546362906694412,-0.893121063709259,0.02504473738372326,-0.06390989571809769,0.008017370477318764,Normal,Normal
144210595130,9.815657615661621,-0.031106693670153618,-0.7420741319656372,0.018936265259981155,-0.049860406666994095,0.012293301522731781,Normal,Normal
144210597565,9.882955551147461,0.004785645287483931,-0.5985047817230225,0.01954711228609085,-0.022372281178832054,0.014736690558493137,Normal,Normal
144210600000,9.942776679992676,0.02632104977965355,-0.5075774788856506,0.015271181240677834,0.013667707331478596,0.011682453565299511,Normal,Normal
144210602435,9.959526062011719,0.04307080805301666,-0.49322056770324707,0.0036650835536420345,0.04787515476346016,0.00862821750342846,Normal,Normal
144210604871,9.952347755432129,0.040677983313798904,-0.579362154006958,0.0036650835536420345,0.07108735293149948,0.0025197449140250683,Normal,Normal
144210607306,9.918848037719727,0.02153540402650833,-0.7492526173591614,-0.01038440316915512,0.07780666649341583,-0.0029778804164379835,Normal,Normal
144210609741,9.880562782287598,-0.02871387079358101,-0.9696913957595825,-0.016492875292897224,0.06253548711538315,-0.006032116711139679,Normal,Normal
144210612176,9.830313682556152,-0.10049854964017868,-1.1802598237991333,-0.015271181240677834,0.031382277607917786,-0.006032116711139679,Normal,Normal
144210614611,9.796515464782715,-0.11724831163883209,-1.3310075998306274,-0.021990500390529633,-0.012598725035786629,-0.0011453386396169662,Normal,Normal
144210617047,9.794121742248535,-0.11964113265275955,-1.4003994464874268,-0.023823043331503868,-0.05230379477143288,0.000687203137204051,Normal,Normal
144210619482,9.808479309082031,-0.11006984114646912,-1.3692927360534668,-0.020157959312200546,-0.08712209016084671,0.0031305921729654074,Normal,Normal
144210621917,9.851848602294922,-0.11006984114646912,-1.2400803565979004,-0.02504473738372326,-0.10178242623806,0.005573981441557407,Normal,Normal
144210624352,9.839884757995605,-0.10289137065410614,-1.0103694200515747,-0.015271181240677834,-0.09445225447416306,0.0031305921729654074,Normal,Normal
144210626788,9.835099220275879,-0.08374879509210587,-0.7564310431480408,-0.013438640162348747,-0.0626882016658783,0.0025197449140250683,Normal,Normal
144210629223,9.813264846801758,-0.059820566326379776,-0.5291129350662231,-0.009773556143045425,-0.018096350133419037,7.635590736754239e-05,Normal,Normal
144210631658,9.748658180236816,-0.019142581149935722,-0.3735794425010681,0.0018325417768210173,0.03443651273846626,-0.004199574701488018,Normal,Normal
144210634093,9.734301567077637,0.0023928226437419653,-0.35922250151634216,0.0018325417768210173,0.0814717561006546,-0.007253811229020357,Normal,Normal
144210636528,9.724730491638184,0.004785645287483931,-0.4812564551830292,0.014049487188458443,0.11079242080450058,-0.009697199799120426,Normal,Normal
144210638964,9.748658180236816,0.040677983313798904,-0.6702894568443298,0.018936265259981155,0.11018157750368118,-0.012140588834881783,Normal,Normal
144210641399,9.796515464782715,0.05742774158716202,-0.9290133714675903,0.026877280324697495,0.08635853230953217,-0.012751436792314053,Normal,Normal
144210643834,9.825528144836426,0.040677983313798904,-1.1419745683670044,0.02504473738372326,0.041766680777072906,-0.00786465872079134,Normal,Normal
144210646269,9.8207426071167,0.016749758273363113,-1.2496516704559326,0.02748812735080719,-0.010766183026134968,-0.0023670331574976444,Normal,Normal
144210648705,9.827920913696289,0.016749758273363113,-1.2831511497497559,0.022601349279284477,-0.05719057470560074,0.0019088976550847292,Normal,Normal
144210651140,9.835099220275879,0.0023928226437419653,-1.2185449600219727,0.017714571207761765,-0.09200886636972427,0.008017370477318764,Normal,Normal
144210653575,9.827920913696289,-0.009571290574967861,-1.0773683786392212,0.00916270911693573,-0.10117157548666,0.011682453565299511,Normal,Normal
144210656010,9.830313682556152,-0.040677983313798904,-0.9122636318206787,0.0018325417768210173,-0.08712209016084671,0.018401773646473885,Normal,Normal
144210658446,9.844670295715332,-0.05503492057323456,-0.7731808423995972,-0.005497625097632408,-0.05657972767949104,0.0165692325681448,Normal,Normal
144210660881,9.875777244567871,-0.04546362906694412,-0.6655037999153137,-0.020157959312200546,-0.013209572061896324,0.014736690558493137,Normal,Normal
144210663316,9.880562782287598,-0.02632104977965355,-0.6702894568443298,-0.010995250195264816,0.03077143058180809,0.012904148548841476,Normal,Normal
144210665751,9.859027862548828,-0.035892341285943985,-0.7277171611785889,-0.031153209507465363,0.06375718116760254,0.004352286923676729,Normal,Normal
144210668186,9.810872077941895,-0.038285162299871445,-0.8644071817398071,-0.026877280324697495,0.08086090534925461,-0.0023670331574976444,Normal,Normal
144210670622,9.784550666809082,-0.04307080805301666,-1.0199406147003174,-0.023212196305394173,0.07353074103593826,-0.007253811229020357,Normal,Normal
144210673057,9.698409080505371,-0.09092725813388824,-1.1419745683670044,-0.029320668429136276,0.05703786388039589,-0.009697199799120426,Normal,Normal
144210675492,9.609874725341797,-0.10767702013254166,-1.1826525926589966,-0.01588202826678753,0.025273805484175682,-0.011529741808772087,Normal,Normal
144210677927,9.559625625610352,-0.11485548317432404,-1.1611171960830688,-0.007330167107284069,-0.009544488042593002,-0.007253811229020357,Normal,Normal
144210680363,9.542876243591309,-0.08853443711996078,-1.0965110063552856,-0.0030542362947016954,-0.03886515647172928,-0.004810422193259001,Normal,Normal
144210682798,9.602696418762207,-0.059820566326379776,-0.9864411354064941,0.011606098152697086,-0.060244809836149216,-0.0011453386396169662,Normal,Normal
144210685233,9.71515941619873,-0.059820566326379776,-0.859621524810791,0.01038440316915512,-0.06757497787475586,0.000687203137204051,Normal,Normal
144210687668,9.835099220275879,-0.05742774158716202,-0.7229315638542175,0.02076880633831024,-0.06085565686225891,0.0031305921729654074,Normal,Normal
144210690103,9.957133293151855,-0.04546362906694412,-0.6032904386520386,0.017714571207761765,-0.04008685052394867,0.005573981441557407,Normal,Normal
144210692539,10.009775161743164,-0.031106693670153618,-0.4860421121120453,0.021990500390529633,-0.015042114071547985,0.006184828467667103,Normal,Normal
144210694974,10.043274879455566,0.0,-0.4453641176223755,0.018936265259981155,0.02038702741265297,0.007406522985547781,Normal,Normal
144210697409,10.01456069946289,-0.016749758273363113,-0.45254257321357727,0.021379653364419937,0.05276193097233772,0.004352286923676729,Normal,Normal
144210699844,9.969097137451172,-0.007178467698395252,-0.524327278137207,0.02626643143594265,0.07414158433675766,0.0031305921729654074,Normal,Normal
144210702280,9.897313117980957,0.007178467698395252,-0.6990033388137817,0.004886778071522713,0.08086090534925461,7.635590736754239e-05,Normal,Normal
144210704715,9.844670295715332,0.0023928226437419653,-0.9314061999320984,0.010995250195264816,0.0692548081278801,-0.004810422193259001,Normal,Normal
144210707150,9.763015747070312,-0.02632104977965355,-1.1635099649429321,-0.004886778071522713,0.041766680777072906,-0.006642963737249374,Normal,Normal
144210709585,9.724730491638184,-0.059820566326379776,-1.3692927360534668,-0.006719320081174374,0.002061609411612153,-0.004199574701488018,Normal,Normal
144210712021,9.717552185058594,-0.05024927482008934,-1.5346965789794922,-0.007330167107284069,-0.04253023862838745,-0.004199574701488018,Normal,Normal
144210714456,9.7366943359375,-0.07896314561367035,-1.599302887916565,-0.014049487188458443,-0.08467870205640793,-0.0005344913806766272,Normal,Normal
144210716891,9.818050384521484,-0.08614161610603333,-1.5418751239776611,-0.02504473738372326,-0.11155597865581512,0.0019088976550847292,Normal,Normal
144210719326,9.849455833435059,-0.09092725813388824,-1.347757339477539,-0.023212196305394173,-0.11888615041971207,0.0031305921729654074,Normal,Normal
144210721761,9.835099220275879,-0.07657032459974289,-1.0558329820632935,-0.02504473738372326,-0.09445225447416306,0.0067956759594380856,Normal,Normal
144210724197,9.823135375976562,-0.04307080805301666,-0.7205387353897095,-0.01954711228609085,-0.04558447748422623,0.005573981441557407,Normal,Normal
144210726632,9.76062297821045,-0.031106693670153618,-0.4214358925819397,-0.016492875292897224,0.0130568603053689,-0.0005344913806766272,Normal,Normal
144210729067,9.696016311645508,-0.004785645287483931,-0.275174617767334,-0.02076880633831024,0.08025006204843521,-0.0005344913806766272,Normal,Normal
144210731503,9.645767211914062,0.019142581149935722,-0.2826521694660187,0.0006108472589403391,0.12423106282949448,-0.004810422193259001,Normal,Normal
144210733938,9.645767211914062,0.019142581149935722,-0.43100717663764954,0.0006108472589403391,0.1468324065208435,-0.007253811229020357,Normal,Normal
144210736373,9.674481391906738,-0.014356935396790504,-0.6822535395622253,0.007941014133393764,0.135226309299469,-0.006642963737249374,Normal,Normal
144210738808,9.72233772277832,-0.038285162299871445,-0.9840483069419861,0.022601349279284477,0.09063446521759033,-0.005421269219368696,Normal,Normal
144210741243,9.767801284790039,-0.05024927482008934,-1.2113664150238037,0.018936265259981155,0.027717193588614464,0.000687203137204051,Normal,Normal
144210743679,9.830313682556152,-0.05742774158716202,-1.3357932567596436,0.02504473738372326,-0.044362783432006836,0.0031305921729654074,Normal,Normal
144210746114,9.892526626586914,-0.08135596662759781,-1.3214362859725952,0.022601349279284477,-0.10422581434249878,0.008017370477318764,Normal,Normal
144210748549,9.92124080657959,-0.08135596662759781,-1.1778669357299805,0.01832541823387146,-0.13537901639938354,0.01046075951308012,Normal,Normal
144210750984,9.9140625,-0.11485548317432404,-0.9218349456787109,0.01588202826678753,-0.13354648649692535,0.014125842601060867,Normal,Normal
144210753420,9.89970588684082,-0.12442677468061447,-0.6631109714508057,0.012216945178806782,-0.1005607321858406,0.013514995574951172,Normal,Normal
144210755855,9.868598937988281,-0.11485548317432404,-0.4668995141983032,-0.007941014133393764,-0.04375193640589714,0.011682453565299511,Normal,Normal
144210758290,9.866206169128418,-0.07178468257188797,-0.40707895159721375,-0.005497625097632408,0.02283041551709175,0.004963133949786425,Normal,Normal
144210760725,9.839884757995605,-0.05742774158716202,-0.4740779995918274,-0.01038440316915512,0.082082599401474,-0.0017561858985573053,Normal,Normal
144210763161,9.849455833435059,-0.02632104977965355,-0.6798607110977173,-0.02076880633831024,0.11384665966033936,-0.006032116711139679,Normal,Normal
144210765596,9.863813400268555,-0.004785645287483931,-0.9672985672950745,-0.01832541823387146,0.11690089106559753,-0.013362283818423748,Normal,Normal
144210768031,9.839884757995605,-0.02153540402650833,-1.2544373273849487,-0.024433890357613564,0.08513683825731277,-0.017027366906404495,Normal,Normal
144210770466,9.779765129089355,-0.02392822690308094,-1.4437693357467651,-0.01588202826678753,0.03626905754208565,-0.01885990984737873,Normal,Normal
144210772901,9.71515941619873,-0.016749758273363113,-1.501197099685669,-0.012216945178806782,-0.02053973823785782,-0.014583977870643139,Normal,Normal
144210775336,9.667302131652832,-0.01196411345154047,-1.4222339391708374,-0.007330167107284069,-0.07124006003141403,-0.012140588834881783,Normal,Normal
144210777772,9.650552749633789,0.0023928226437419653,-1.2472587823867798,0.0006108472589403391,-0.10422581434249878,-0.004199574701488018,Normal,Normal
144210780207,9.696016311645508,0.014356935396790504,-0.9936196208000183,0.0024433890357613564,-0.11094513535499573,0.0025197449140250683,Normal,Normal
144210782642,9.71515941619873,0.009571290574967861,-0.7061817646026611,0.007941014133393764,-0.09200886636972427,0.007406522985547781,Normal,Normal
144210785077,9.770194053649902,-0.004785645287483931,-0.4980062246322632,0.01038440316915512,-0.04558447748422623,0.014125842601060867,Normal,Normal
144210787513,9.837491989135742,0.0023928226437419653,-0.3640081584453583,0.013438640162348747,0.0038941511884331703,0.017180079594254494,Normal,Normal
144210789948,9.849455833435059,-0.019142581149935722,-0.31854450702667236,0.014049487188458443,0.05948125198483467,0.017180079594254494,Normal,Normal
144210792383,9.89013385772705,-0.02871387079358101,-0.39990049600601196,0.01038440316915512,0.09796462953090668,0.01779092662036419,Normal,Normal
144210794818,9.90688419342041,-0.02871387079358101,-0.5626124143600464,0.012216945178806782,0.11812258511781693,0.014125842601060867,Normal,Normal
144210797254,9.859027862548828,-0.035892341285943985,-0.7540382146835327,0.007941014133393764,0.11629004776477814,0.011071606539189816,Normal,Normal
144210799689,9.842277526855469,-0.05742774158716202,-0.9888339638710022,0.006719320081174374,0.08696937561035156,0.006184828467667103,Normal,Normal
144210802124,9.806086540222168,-0.07657032459974289,-1.1874382495880127,-0.0012216945178806782,0.04359922185540199,7.635590736754239e-05,Normal,Normal
144210804559,9.748658180236816,-0.10289137065410614,-1.3070793151855469,-0.004275931045413017,-0.008933641016483307,-0.004810422193259001,Normal,Normal
144210806994,9.746265411376953,-0.0933200865983963,-1.3597214221954346,-0.0012216945178806782,-0.0626882016658783,-0.00786465872079134,Normal,Normal
144210809430,9.782157897949219,-0.1052841991186142,-1.3453645706176758,-0.01832541823387146,-0.10605835169553757,-0.00908635277301073,Normal,Normal
144210811865,9.839884757995605,-0.12921242415905,-1.256830096244812,-0.014049487188458443,-0.1274380087852478,-0.009697199799120426,Normal,Normal
144210814300,9.89013385772705,-0.12921242415905,-1.0845468044281006,-0.014049487188458443,-0.12560546398162842,-0.00786465872079134,Normal,Normal
144210816735,9.902098655700684,-0.11485548317432404,-0.8306085467338562,-0.02076880633831024,-0.09811734408140182,-0.004810422193259001,Normal,Normal
144210819170,9.89970588684082,-0.08853443711996078,-0.5961119532585144,-0.011606098152697086,-0.051082100719213486,-0.0017561858985573053,Normal,Normal
144210821606,9.875777244567871,-0.019142581149935722,-0.4381856322288513,-0.011606098152697086,0.007559234742075205,-0.0029778804164379835,Normal,Normal
144210824041,9.835099220275879,0.016749758273363113,-0.32572299242019653,-0.007330167107284069,0.06681142002344131,-0.0023670331574976444,Normal,Normal
144210826476,9.75105094909668,0.038285162299871445,-0.368793785572052,0.0036650835536420345,0.11140327155590057,-0.0029778804164379835,Normal,Normal
144210828911,9.698409080505371,0.04785645380616188,-0.5482555031776428,0.0036650835536420345,0.12911784648895264,-0.0017561858985573053,Normal,Normal
144210831347,9.674481391906738,0.04546362906694412,-0.8162516355514526,0.01038440316915512,0.12300936877727509,-0.004199574701488018,Normal,Normal
144210833782,9.676874160766602,0.019142581149935722,-1.103689432144165,0.016492875292897224,0.08513683825731277,-0.0005344913806766272,Normal,Normal
144210836217,9.71515941619873,-0.01196411345154047,-1.350150227546692,0.02076880633831024,0.026495499536395073,7.635590736754239e-05,Normal,Normal
144210838652,9.784550666809082,-0.014356935396790504,-1.4868401288986206,0.01832541823387146,-0.039476003497838974,0.005573981441557407,Normal,Normal
144210841087,9.863813400268555,-0.02632104977965355,-1.5035899877548218,0.01954711228609085,-0.09628479927778244,0.011682453565299511,Normal,Normal
144210843523,9.952347755432129,-0.040677983313798904,-1.3621143102645874,0.013438640162348747,-0.1286597102880478,0.011682453565299511,Normal,Normal
144210845958,9.945169448852539,-0.07417750358581543,-1.072582721710205,0.011606098152697086,-0.13293562829494476,0.012293301522731781,Normal,Normal
144210848393,9.942776679992676,-0.0933200865983963,-0.7588238716125488,0.0030542362947016954,-0.09872818738222122,0.014736690558493137,Normal,Normal
144210850828,9.92124080657959,-0.09571290761232376,-0.49322056770324707,-0.0036650835536420345,-0.040697697550058365,0.011682453565299511,Normal,Normal
144210853264,9.878170013427734,-0.08135596662759781,-0.3281157910823822,-0.009773556143045425,0.027717193588614464,0.0067956759594380856,Normal,Normal
144210855699,9.861420631408691,-0.062213387340307236,-0.30658039450645447,-0.01588202826678753,0.08941277116537094,0.00129805039614439,Normal,Normal
144210858134,9.842277526855469,-0.0526420995593071,-0.45254257321357727,-0.01710372418165207,0.13156123459339142,-0.005421269219368696,Normal,Normal
144210860569,9.827920913696289,-0.035892341285943985,-0.7277171611785889,-0.021990500390529633,0.13705885410308838,-0.009697199799120426,Normal,Normal
144210863005,9.832706451416016,-0.009571290574967861,-1.0271191596984863,-0.01710372418165207,0.11079242080450058,-0.012751436792314053,Normal,Normal
144210865440,9.770194053649902,-0.02632104977965355,-1.292722463607788,-0.010995250195264816,0.05703786388039589,-0.015194825828075409,Normal,Normal
144210867875,9.698409080505371,-0.038285162299871445,-1.4294124841690063,-0.012827792204916477,-0.010155336000025272,-0.015194825828075409,Normal,Normal
144210870310,9.681659698486328,-0.059820566326379776,-1.4318052530288696,-0.0006108472589403391,-0.07246175408363342,-0.010308047756552696,Normal,Normal
144210872745,9.62901782989502,-0.062213387340307236,-1.287936806678772,0.0012216945178806782,-0.11766445636749268,-0.004810422193259001,Normal,Normal
144210875181,9.609874725341797,-0.04546362906694412,-1.043868899345398,0.006719320081174374,-0.13171394169330597,0.0019088976550847292,Normal,Normal
144210877616,9.6433744430542,-0.06699903309345245,-0.7612167000770569,0.01038440316915512,-0.11888615041971207,0.00862821750342846,Normal,Normal
144210880051,9.703194618225098,-0.064606212079525,-0.5075774788856506,0.006719320081174374,-0.07368344813585281,0.011071606539189816,Normal,Normal
144210882486,9.801301002502441,-0.04546362906694412,-0.35443684458732605,0.012216945178806782,-0.01748550310730934,0.014736690558493137,Normal,Normal
144210884922,9.89013385772705,-0.04307080805301666,-0.3400799036026001,0.013438640162348747,0.04359922185540199,0.014125842601060867,Normal,Normal
144210887357,9.959526062011719,-0.02871387079358101,-0.38315072655677795,0.006719320081174374,0.08941277116537094,0.012904148548841476,Normal,Normal
144210889792,10.002596855163574,-0.02871387079358101,-0.5769693851470947,0.008551862090826035,0.11567919701337814,0.006184828467667103,Normal,Normal
144210892227,10.004989624023438,-0.02632104977965355,-0.8162516355514526,0.007941014133393764,0.11262496560811996,0.0019088976550847292,Normal,Normal
144210894663,9.985847473144531,-0.019142581149935722,-1.048654556274414,0.0012216945178806782,0.08880192041397095,-0.0023670331574976444,Normal,Normal
144210897098,9.933204650878906,-0.02871387079358101,-1.2640085220336914,0.0024433890357613564,0.039323292672634125,-0.007253811229020357,Normal,Normal
144210899533,9.842277526855469,-0.02871387079358101,-1.3668999671936035,-0.004275931045413017,-0.010766183026134968,-0.00786465872079134,Normal,Normal
144210901968,9.765408515930176,-0.035892341285943985,-1.3764712810516357,-0.004275931045413017,-0.060244809836149216,-0.009697199799120426,Normal,Normal
144210904403,9.731908798217773,-0.05024927482008934,-1.311864972114563,-0.0,-0.09384141117334366,-0.009697199799120426,Normal,Normal
144210906839,9.719944953918457,-0.02392822690308094,-1.165902853012085,-0.010995250195264816,-0.10850174725055695,-0.008475505746901035,Normal,Normal
144210909274,9.74387264251709,-0.04546362906694412,-1.0007981061935425,-0.013438640162348747,-0.09933903813362122,-0.0035887276753783226,Normal,Normal
144210911709,9.803693771362305,-0.031106693670153618,-0.8258228898048401,-0.0030542362947016954,-0.0755159929394722,-0.0005344913806766272,Normal,Normal
144210914144,9.856635093688965,-0.031106693670153618,-0.6702894568443298,-0.020157959312200546,-0.03214583545923233,0.0037414394319057465,Normal,Normal
144210916580,9.873384475708008,-0.009571290574967861,-0.5745765566825867,-0.0036650835536420345,0.010002624243497849,0.0067956759594380856,Normal,Normal
144210919015,9.89013385772705,0.0,-0.5291129350662231,-0.004275931045413017,0.05337277799844742,0.006184828467667103,Normal,Normal
144210921450,9.823135375976562,0.02392822690308094,-0.5578267574310303,-0.006719320081174374,0.08880192041397095,0.006184828467667103,Normal,Normal
144210923885,9.794121742248535,0.038285162299871445,-0.6607181429862976,0.006719320081174374,0.10529479384422302,0.004352286923676729,Normal,Normal
144210926320,9.739087104797363,0.04546362906694412,-0.8210372924804688,0.004886778071522713,0.10040801763534546,-0.0011453386396169662,Normal,Normal
144210928755,9.693623542785645,0.014356935396790504,-0.9864411354064941,0.0024433890357613564,0.07169819623231888,0.000687203137204051,Normal,Normal
144210931191,9.667302131652832,-0.004785645287483931,-1.1132607460021973,0.013438640162348747,0.03443651273846626,-0.0023670331574976444,Normal,Normal
144210933626,9.617053031921387,-0.031106693670153618,-1.1802598237991333,0.009773556143045425,-0.009544488042593002,-0.0017561858985573053,Normal,Normal
144210936061,9.640981674194336,-0.06699903309345245,-1.1850453615188599,0.011606098152697086,-0.0492495596408844,0.00129805039614439,Normal,Normal
144210938496,9.705587387084961,-0.08135596662759781,-1.1515458822250366,0.012827792204916477,-0.08162446320056915,0.004963133949786425,Normal,Normal
144210940932,9.784550666809082,-0.11485548317432404,-1.0103694200515747,0.004275931045413017,-0.09323056042194366,0.00862821750342846,Normal,Normal
144210943367,9.878170013427734,-0.11485548317432404,-0.8353942036628723,0.006108472589403391,-0.0877329409122467,0.011071606539189816,Normal,Normal
144210945802,9.957133293151855,-0.10049854964017868,-0.6607181429862976,-0.0,-0.06146650388836861,0.009849912486970425,Normal,Normal
144210948237,9.997811317443848,-0.06939185410737991,-0.5147559642791748,-0.010995250195264816,-0.022372281178832054,0.008017370477318764,Normal,Normal
144210950672,10.02173900604248,-0.05503492057323456,-0.4381856322288513,-0.01038440316915512,0.02038702741265297,0.0037414394319057465,Normal,Normal
144210953108,10.0073823928833,-0.031106693670153618,-0.45972105860710144,-0.012216945178806782,0.06192464008927345,7.635590736754239e-05,Normal,Normal
144210955543,9.961918830871582,-0.007178467698395252,-0.6008976101875305,-0.012216945178806782,0.08452598750591278,-0.006032116711139679,Normal,Normal
144210957978,9.887741088867188,0.004785645287483931,-0.7923234105110168,-0.009773556143045425,0.08574768155813217,-0.010308047756552696,Normal,Normal
144210960413,9.794121742248535,-0.014356935396790504,-1.0151549577713013,-0.01588202826678753,0.06742226332426071,-0.013362283818423748,Normal,Normal
144210962849,9.686445236206055,-0.014356935396790504,-1.2089736461639404,-0.0006108472589403391,0.031382277607917786,-0.013362283818423748,Normal,Normal
144210965284,9.617053031921387,-0.019142581149935722,-1.3381860256195068,-0.004275931045413017,-0.008933641016483307,-0.014583977870643139,Normal,Normal
144210967719,9.573982238769531,-0.014356935396790504,-1.3812568187713623,0.0006108472589403391,-0.049860406666994095,-0.00908635277301073,Normal,Normal
144210970155,9.61944580078125,-0.014356935396790504,-1.3405789136886597,0.007941014133393764,-0.08223531395196915,-0.0017561858985573053,Normal,Normal
144210972590,9.662516593933105,-0.016749758273363113,-1.1802598237991333,0.006719320081174374,-0.09628479927778244,0.004352286923676729,Normal,Normal
144210975025,9.696016311645508,-0.019142581149935722,-0.9433703422546387,0.004886778071522713,-0.08651123940944672,0.009239064529538155,Normal,Normal
144210977460,9.770194053649902,-0.02632104977965355,-0.7109674215316772,0.01710372418165207,-0.05474718660116196,0.012293301522731781,Normal,Normal
144210979896,9.870991706848145,0.004785645287483931,-0.5171487927436829,0.012827792204916477,-0.011377030052244663,0.015958385542035103,Normal,Normal
144210982331,9.930811882019043,0.035892341285943985,-0.3807578980922699,0.007330167107284069,0.03565821051597595,0.011682453565299511,Normal,Normal
144210984766,9.959526062011719,0.035892341285943985,-0.3640081584453583,0.005497625097632408,0.07963921129703522,0.009849912486970425,Normal,Normal
144210987201,9.926026344299316,0.038285162299871445,-0.4453641176223755,0.006719320081174374,0.10529479384422302,0.006184828467667103,Normal,Normal
144210989636,9.856635093688965,0.02871387079358101,-0.612861692905426,0.0030542362947016954,0.11323580890893936,-0.0011453386396169662,Normal,Normal
144210992072,9.837491989135742,0.01196411345154047,-0.8715856671333313,0.004275931045413017,0.09613208472728729,-0.007253811229020357,Normal,Normal
144210994507,9.803693771362305,-0.05503492057323456,-1.165902853012085,-0.004886778071522713,0.05154023692011833,-0.007253811229020357,Normal,Normal
144210996942,9.808479309082031,-0.11724831163883209,-1.3812568187713623,-0.0012216945178806782,-0.008322793990373611,-0.0011453386396169662,Normal,Normal
144210999377,9.849455833435059,-0.1339980661869049,-1.474876046180725,-0.0012216945178806782,-0.06879667192697525,0.0037414394319057465,Normal,Normal
144211001813,9.856635093688965,-0.1339980661869049,-1.4270195960998535,-0.005497625097632408,-0.1139993667602539,0.0037414394319057465,Normal,Normal
144211004248,9.839884757995605,-0.12442677468061447,-1.2161520719528198,-0.013438640162348747,-0.13476817309856415,0.0067956759594380856,Normal,Normal
144211006683,9.813264846801758,-0.11246266216039658,-0.9218349456787109,-0.016492875292897224,-0.11705360561609268,0.007406522985547781,Normal,Normal
144211009118,9.774979591369629,-0.08853443711996078,-0.6296114325523376,-0.016492875292897224,-0.0761268362402916,0.005573981441557407,Normal,Normal
144211011553,9.727123260498047,-0.04785645380616188,-0.4214358925819397,-0.00916270911693573,-0.01626380905508995,0.004352286923676729,Normal,Normal
144211013988,9.688838005065918,-0.02392822690308094,-0.31854450702667236,-0.012827792204916477,0.05276193097233772,-0.0023670331574976444,Normal,Normal
144211016424,9.648159980773926,0.004785645287483931,-0.3640081584453583,-0.004886778071522713,0.10346225649118423,-0.005421269219368696,Normal,Normal
144211018859,9.657731056213379,-0.0023928226437419653,-0.5578267574310303,0.004886778071522713,0.13033953309059143,-0.00908635277301073,Normal,Normal
144211021294,9.707980155944824,0.02871387079358101,-0.8306085467338562,0.005497625097632408,0.11934428662061691,-0.00908635277301073,Normal,Normal
144211023729,9.770194053649902,0.019142581149935722,-1.1395817995071411,0.008551862090826035,0.08330429345369339,-0.010308047756552696,Normal,Normal
144211026165,9.844670295715332,0.007178467698395252,-1.342971682548523,0.012216945178806782,0.022219568490982056,-0.008475505746901035,Normal,Normal
144211028600,9.837491989135742,0.0,-1.3860424757003784,0.012216945178806782,-0.03886515647172928,-0.0029778804164379835,Normal,Normal
144211031035,9.798908233642578,-0.02392822690308094,-1.256830096244812,0.021379653364419937,-0.08528954535722733,0.0019088976550847292,Normal,Normal
144211033470,9.770194053649902,-0.02392822690308094,-1.0199406147003174,0.015271181240677834,-0.10789089649915695,0.004963133949786425,Normal,Normal
144211035905,9.727123260498047,-0.02392822690308094,-0.7588238716125488,0.014660334214568138,-0.09872818738222122,0.012904148548841476,Normal,Normal
144211038341,9.7366943359375,-0.04546362906694412,-0.5338985323905945,0.013438640162348747,-0.06818582862615585,0.015347537584602833,Normal,Normal
144211040776,9.794121742248535,-0.062213387340307236,-0.4166502356529236,0.0030542362947016954,-0.019928891211748123,0.01779092662036419,Normal,Normal
144211043211,9.870991706848145,-0.06939185410737991,-0.42382872104644775,-0.0018325417768210173,0.025884652510285378,0.015347537584602833,Normal,Normal
144211045647,9.952347755432129,-0.07178468257188797,-0.5626124143600464,-0.011606098152697086,0.06192464008927345,0.012293301522731781,Normal,Normal
144211048082,10.033703804016113,-0.07417750358581543,-0.766002357006073,-0.016492875292897224,0.07780666649341583,0.008017370477318764,Normal,Normal
144211050517,10.055238723754883,-0.07417750358581543,-0.9768698215484619,-0.012827792204916477,0.07230904698371887,0.0037414394319057465,Normal,Normal
144211052952,10.02173900604248,-0.08135596662759781,-1.1635099649429321,-0.018936265259981155,0.048486001789569855,-0.004810422193259001,Normal,Normal
144211055387,9.937990188598633,-0.08374879509210587,-1.2640085220336914,-0.016492875292897224,0.014889402315020561,-0.005421269219368696,Normal,Normal
144211057823,9.796515464782715,-0.11724831163883209,-1.2616157531738281,-0.010995250195264816,-0.02053973823785782,-0.010308047756552696,Normal,Normal
144211060258,9.657731056213379,-0.11964113265275955,-1.189831018447876,-0.014660334214568138,-0.04619532451033592,-0.010918894782662392,Normal,Normal
144211062693,9.566803932189941,-0.11724831163883209,-1.0606186389923096,-0.006719320081174374,-0.059023115783929825,-0.008475505746901035,Normal,Normal
144211065128,9.581160545349121,-0.11006984114646912,-0.9553344249725342,-0.0024433890357613564,-0.06085565686225891,-0.006032116711139679,Normal,Normal
144211067564,9.676874160766602,-0.1052841991186142,-0.8644071817398071,-0.0018325417768210173,-0.05291464552283287,-0.0005344913806766272,Normal,Normal
144211069999,9.765408515930176,-0.0933200865983963,-0.797109067440033,0.006719320081174374,-0.04008685052394867,0.00129805039614439,Normal,Normal
144211072434,9.885348320007324,-0.07178468257188797,-0.7540382146835327,0.0018325417768210173,-0.01626380905508995,0.007406522985547781,Normal,Normal
144211074869,10.036096572875977,-0.04307080805301666,-0.7492526173591614,0.014660334214568138,0.0008399150101467967,0.008017370477318764,Normal,Normal
144211077305,10.112667083740234,-0.031106693670153618,-0.7444669604301453,0.012216945178806782,0.016111096367239952,0.008017370477318764,Normal,Normal
144211079740,10.093523979187012,-0.04785645380616188,-0.7253243923187256,0.012827792204916477,0.03382566571235657,0.0067956759594380856,Normal,Normal
144211082175,10.012167930603027,-0.02871387079358101,-0.7037889361381531,0.018936265259981155,0.04787515476346016,0.0037414394319057465,Normal,Normal
144211084610,9.887741088867188,-0.035892341285943985,-0.7109674215316772,0.008551862090826035,0.060092099010944366,0.004352286923676729,Normal,Normal
144211087046,9.779765129089355,-0.062213387340307236,-0.7636095285415649,0.013438640162348747,0.060092099010944366,0.0031305921729654074,Normal,Normal
144211089481,9.657731056213379,-0.064606212079525,-0.8620143532752991,0.005497625097632408,0.050929389894008636,0.000687203137204051,Normal,Normal
144211091916,9.581160545349121,-0.0933200865983963,-1.0055837631225586,-0.0036650835536420345,0.03382566571235657,-0.0023670331574976444,Normal,Normal
144211094351,9.569196701049805,-0.11006984114646912,-1.1635099649429321,0.0018325417768210173,0.006948387715965509,-0.0005344913806766272,Normal,Normal
144211096786,9.645767211914062,-0.11964113265275955,-1.2903295755386353,-0.006719320081174374,-0.029091600328683853,0.000687203137204051,Normal,Normal
144211099222,9.746265411376953,-0.13878370821475983,-1.3549357652664185,-0.004275931045413017,-0.05841226875782013,-0.0017561858985573053,Normal,Normal
144211101657,9.882955551147461,-0.13639089465141296,-1.3262219429016113,-0.014660334214568138,-0.0883437842130661,0.00129805039614439,Normal,Normal
144211104092,9.961918830871582,-0.12442677468061447,-1.1802598237991333,-0.016492875292897224,-0.09567394852638245,0.00129805039614439,Normal,Normal
144211106527,10.02173900604248,-0.1052841991186142,-0.9625129103660583,-0.01832541823387146,-0.08528954535722733,0.000687203137204051,Normal,Normal
144211108963,10.026525497436523,-0.059820566326379776,-0.7037889361381531,-0.016492875292897224,-0.051082100719213486,-0.005421269219368696,Normal,Normal
144211111398,9.973882675170898,-0.03349951654672623,-0.4812564551830292,-0.014660334214568138,-0.007101099472492933,-0.00908635277301073,Normal,Normal
144211113833,9.894919395446777,-0.019142581149935722,-0.368793785572052,-0.006719320081174374,0.041766680777072906,-0.00908635277301073,Normal,Normal
144211116268,9.825528144836426,0.0,-0.38793638348579407,-0.00916270911693573,0.08269345015287399,-0.013973130844533443,Normal,Normal
144211118704,9.75344467163086,-0.014356935396790504,-0.5554339289665222,0.006108472589403391,0.10285140573978424,-0.009697199799120426,Normal,Normal
144211121139,9.75105094909668,-0.04307080805301666,-0.8377870321273804,0.009773556143045425,0.0949103906750679,-0.00786465872079134,Normal,Normal
144211123574,9.75344467163086,-0.064606212079525,-1.1252248287200928,0.011606098152697086,0.06436803191900253,-0.0035887276753783226,Normal,Normal
144211126009,9.763015747070312,-0.07178468257188797,-1.3812568187713623,0.015271181240677834,0.011835165321826935,0.004352286923676729,Normal,Normal
144211128444,9.808479309082031,-0.09571290761232376,-1.501197099685669,0.013438640162348747,-0.039476003497838974,0.009849912486970425,Normal,Normal
144211130879,9.870991706848145,-0.09810572862625122,-1.4964114427566528,0.022601349279284477,-0.08651123940944672,0.014125842601060867,Normal,Normal
144211133315,9.89013385772705,-0.11485548317432404,-1.3405789136886597,0.007941014133393764,-0.10850174725055695,0.015347537584602833,Normal,Normal
144211135750,9.892526626586914,-0.11485548317432404,-1.0869396924972534,0.01588202826678753,-0.10117157548666,0.013514995574951172,Normal,Normal
144211138185,9.911669731140137,-0.12681959569454193,-0.8500502705574036,0.006719320081174374,-0.07429429888725281,0.012293301522731781,Normal,Normal
144211140620,9.92841911315918,-0.11485548317432404,-0.6583253145217896,-0.014049487188458443,-0.022372281178832054,0.007406522985547781,Normal,Normal
144211143056,9.911669731140137,-0.11485548317432404,-0.5673980712890625,-0.0024433890357613564,0.02832804247736931,0.0019088976550847292,Normal,Normal
144211145491,9.923633575439453,-0.08853443711996078,-0.5937191247940063,-0.01588202826678753,0.07414158433675766,-0.006642963737249374,Normal,Normal
144211147926,9.93559741973877,-0.08135596662759781,-0.7396813035011292,-0.02076880633831024,0.10101886838674545,-0.012140588834881783,Normal,Normal
144211150361,9.93559741973877,-0.09092725813388824,-0.9409775137901306,-0.014049487188458443,0.09796462953090668,-0.017027366906404495,Normal,Normal
144211152797,9.868598937988281,-0.10049854964017868,-1.1371889114379883,-0.016492875292897224,0.07658497244119644,-0.021303297951817513,Normal,Normal
144211155232,9.741479873657227,-0.08374879509210587,-1.2376874685287476,-0.01588202826678753,0.03504735976457596,-0.02008160389959812,Normal,Normal
144211157667,9.6433744430542,-0.07417750358581543,-1.256830096244812,-0.007941014133393764,-0.005268557462841272,-0.015805672854185104,Normal,Normal
144211160102,9.578767776489258,-0.0526420995593071,-1.1922239065170288,-0.007941014133393764,-0.04619532451033592,-0.010918894782662392,Normal,Normal
144211162537,9.554840087890625,-0.02871387079358101,-1.0941181182861328,-0.0012216945178806782,-0.07062921673059464,-0.006642963737249374,Normal,Normal
144211164973,9.585947036743164,-0.0023928226437419653,-0.9481559991836548,0.005497625097632408,-0.07918107509613037,-0.0023670331574976444,Normal,Normal
144211167408,9.640981674194336,0.009571290574967861,-0.8066803216934204,0.006719320081174374,-0.07429429888725281,0.0037414394319057465,Normal,Normal
144211169843,9.734301567077637,0.004785645287483931,-0.7061817646026611,0.004886778071522713,-0.05230379477143288,0.0037414394319057465,Normal,Normal
144211172278,9.870991706848145,0.02153540402650833,-0.6535396575927734,0.024433890357613564,-0.022372281178832054,0.008017370477318764,Normal,Normal
144211174714,9.942776679992676,-0.019142581149935722,-0.6272186636924744,0.012827792204916477,0.006948387715965509,0.007406522985547781,Normal,Normal
144211177149,9.988240242004395,-0.016749758273363113,-0.6678966283798218,0.012216945178806782,0.039323292672634125,0.00862821750342846,Normal,Normal
144211179584,9.971489906311035,-0.035892341285943985,-0.7516453862190247,0.021379653364419937,0.05276193097233772,0.01046075951308012,Normal,Normal
144211182019,9.923633575439453,-0.062213387340307236,-0.857228696346283,0.0006108472589403391,0.0680331140756607,0.0067956759594380856,Normal,Normal
144211184455,9.863813400268555,-0.07417750358581543,-0.9888339638710022,0.010995250195264816,0.06131379306316376,0.004963133949786425,Normal,Normal
144211186890,9.798908233642578,-0.09810572862625122,-1.134796142578125,-0.007941014133393764,0.04665346071124077,0.0025197449140250683,Normal,Normal
144211189325,9.755837440490723,-0.10289137065410614,-1.256830096244812,-0.007330167107284069,0.022219568490982056,7.635590736754239e-05,Normal,Normal
144211191760,9.748658180236816,-0.11964113265275955,-1.3908281326293945,-0.009773556143045425,-0.01382041908800602,-0.0017561858985573053,Normal,Normal
144211194196,9.798908233642578,-0.12681959569454193,-1.4557334184646606,-0.016492875292897224,-0.04375193640589714,-0.006642963737249374,Normal,Normal
144211196631,9.863813400268555,-0.13878370821475983,-1.415055513381958,-0.008551862090826035,-0.0755159929394722,-0.006642963737249374,Normal,Normal
144211199066,9.918848037719727,-0.11485548317432404,-1.2783654928207397,-0.013438640162348747,-0.08651123940944672,-0.00786465872079134,Normal,Normal
144211201501,9.933204650878906,-0.11006984114646912,-1.0534402132034302,-0.01954711228609085,-0.08101361989974976,-0.006642963737249374,Normal,Normal
144211203936,9.89013385772705,-0.06699903309345245,-0.7707880139350891,-0.014049487188458443,-0.05291464552283287,-0.006642963737249374,Normal,Normal
144211206371,9.815657615661621,-0.02871387079358101,-0.5195416212081909,-0.009773556143045425,-0.009544488042593002,-0.008475505746901035,Normal,Normal
144211208807,9.734301567077637,0.016749758273363113,-0.36640095710754395,-0.010995250195264816,0.04115583375096321,-0.010918894782662392,Normal,Normal
144211211242,9.679266929626465,0.038285162299871445,-0.34725838899612427,0.006108472589403391,0.08330429345369339,-0.012751436792314053,Normal,Normal
144211213677,9.624231338500977,0.040677983313798904,-0.4812564551830292,0.007330167107284069,0.11323580890893936,-0.011529741808772087,Normal,Normal
144211216112,9.602696418762207,0.02153540402650833,-0.7061817646026611,0.012827792204916477,0.10895988345146179,-0.007253811229020357,Normal,Normal
144211218547,9.61944580078125,0.014356935396790504,-0.9529415965080261,0.01710372418165207,0.08391514420509338,-0.0023670331574976444,Normal,Normal
144211220983,9.652945518493652,-0.004785645287483931,-1.1874382495880127,0.01832541823387146,0.039323292672634125,0.0025197449140250683,Normal,Normal
144211223418,9.696016311645508,-0.004785645287483931,-1.3357932567596436,0.01588202826678753,-0.019318044185638428,0.007406522985547781,Normal,Normal
144211225853,9.76062297821045,-0.009571290574967861,-1.3716856241226196,0.017714571207761765,-0.06635328382253647,0.009849912486970425,Normal,Normal
144211228288,9.798908233642578,0.009571290574967861,-1.2759727239608765,0.014049487188458443,-0.09689565002918243,0.013514995574951172,Normal,Normal
144211230724,9.798908233642578,-0.019142581149935722,-1.0773683786392212,0.01038440316915512,-0.10483665764331818,0.014125842601060867,Normal,Normal
144211233159,9.810872077941895,-0.02871387079358101,-0.8330013751983643,-0.0018325417768210173,-0.08467870205640793,0.012293301522731781,Normal,Normal
144211235594,9.798908233642578,-0.05024927482008934,-0.6200401782989502,-0.0030542362947016954,-0.04558447748422623,0.008017370477318764,Normal,Normal
144211238029,9.803693771362305,-0.06699903309345245,-0.5003990530967712,-0.01832541823387146,0.006337540224194527,0.0031305921729654074,Normal,Normal
144211240465,9.832706451416016,-0.05503492057323456,-0.5075774788856506,-0.015271181240677834,0.0552053228020668,-0.0011453386396169662,Normal,Normal
144211242900,9.875777244567871,-0.038285162299871445,-0.6224330067634583,-0.014049487188458443,0.08513683825731277,-0.004199574701488018,Normal,Normal
144211245335,9.89013385772705,-0.02392822690308094,-0.8162516355514526,-0.02076880633831024,0.0942995473742485,-0.00786465872079134,Normal,Normal
144211247771,9.923633575439453,-0.02153540402650833,-1.0247262716293335,-0.023823043331503868,0.07353074103593826,-0.013973130844533443,Normal,Normal
144211250206,9.854242324829102,-0.01196411345154047,-1.1922239065170288,-0.013438640162348747,0.038101598620414734,-0.014583977870643139,Normal,Normal
144211252641,9.770194053649902,-0.03349951654672623,-1.2783654928207397,-0.014049487188458443,-0.0034360159188508987,-0.012751436792314053,Normal,Normal
144211255076,9.667302131652832,-0.02871387079358101,-1.2711870670318604,-0.004886778071522713,-0.04497363045811653,-0.010308047756552696,Normal,Normal
144211257511,9.60508918762207,-0.038285162299871445,-1.1682956218719482,0.0006108472589403391,-0.06818582862615585,-0.004199574701488018,Normal,Normal
144211259947,9.576375007629395,-0.04785645380616188,-0.981655478477478,0.004275931045413017,-0.07795938104391098,7.635590736754239e-05,Normal,Normal
144211262382,9.571589469909668,-0.02632104977965355,-0.7755736112594604,0.009773556143045425,-0.06635328382253647,0.005573981441557407,Normal,Normal
144211264817,9.600303649902344,-0.007178467698395252,-0.5745765566825867,0.009773556143045425,-0.03458922728896141,0.008017370477318764,Normal,Normal
144211267252,9.662516593933105,0.02153540402650833,-0.4381856322288513,0.01832541823387146,0.004504998680204153,0.009239064529538155,Normal,Normal
144211269688,9.74387264251709,0.02871387079358101,-0.3975076675415039,0.012216945178806782,0.04604261368513107,0.007406522985547781,Normal,Normal
144211272123,9.782157897949219,0.004785645287483931,-0.44297128915786743,0.022601349279284477,0.07475243508815765,0.0067956759594380856,Normal,Normal
144211274558,9.823135375976562,-0.009571290574967861,-0.5721837282180786,0.00916270911693573,0.09063446521759033,0.007406522985547781,Normal,Normal
144211276993,9.873384475708008,-0.007178467698395252,-0.7564310431480408,0.004886778071522713,0.08635853230953217,0.0037414394319057465,Normal,Normal
144211279429,9.878170013427734,-0.014356935396790504,-0.9409775137901306,0.01588202826678753,0.057648710906505585,0.0037414394319057465,Normal,Normal
144211281864,9.897313117980957,-0.031106693670153618,-1.1084750890731812,-0.007330167107284069,0.022219568490982056,7.635590736754239e-05,Normal,Normal
144211284299,9.873384475708008,-0.02392822690308094,-1.2041879892349243,0.0024433890357613564,-0.022372281178832054,-0.0017561858985573053,Normal,Normal
144211286734,9.870991706848145,-0.031106693670153618,-1.220937728881836,-0.007330167107284069,-0.05841226875782013,-0.0023670331574976444,Normal,Normal
144211289169,9.856635093688965,-0.016749758273363113,-1.1635099649429321,-0.018936265259981155,-0.08345700800418854,-0.0017561858985573053,Normal,Normal
144211291604,9.786943435668945,-0.02871387079358101,-1.0007981061935425,-0.006719320081174374,-0.08712209016084671,-0.004810422193259001,Normal,Normal
144211294040,9.693623542785645,-0.02632104977965355,-0.8258228898048401,-0.016492875292897224,-0.07246175408363342,-0.0035887276753783226,Normal,Normal
144211296475,9.664909362792969,-0.019142581149935722,-0.6846463680267334,-0.014660334214568138,-0.04008685052394867,-0.0023670331574976444,Normal,Normal
144211298910,9.669695854187012,-0.02153540402650833,-0.5889334678649902,-0.01038440316915512,-0.0022143214009702206,-0.0023670331574976444,Normal,Normal
144211301345,9.693623542785645,-0.014356935396790504,-0.5482555031776428,-0.020157959312200546,0.03626905754208565,-0.0023670331574976444,Normal,Normal
144211303781,9.748658180236816,0.02153540402650833,-0.612861692905426,-0.004275931045413017,0.06131379306316376,-0.0017561858985573053,Normal,Normal
