time_usec,acc_x,acc_y,acc_z,rot_x,rot_y,rot_z,label,type
144430397261,10.601101875305176,-0.23449662327766418,-1.7548363208770752,-0.006337540224194527,-0.010308047756552696,-0.01969982497394085,Normal,Normal
144430399696,10.524531364440918,-0.3161516785621643,-1.709372639656067,-0.016111096367239952,-0.08971819281578064,-0.017867282032966614,Normal,Normal
144430402131,10.28016471862793,-0.3640081584453583,-1.316650629043579,-0.025273805484175682,-0.1330883502960205,-0.014202198944985867,Normal,Normal
144430404566,9.880562782287598,-0.3233301639556885,-0.675075113773346,-0.03382566571235657,-0.12881241738796234,-0.007482878863811493,Normal,Normal
144430407002,9.49501895904541,-0.26560330390930176,-0.035892341285943985,-0.03199312463402748,-0.07383616268634796,-0.008704573847353458,Normal,Normal
144430409437,9.241081237792969,-0.19381862878799438,0.36640095710754395,-0.030160583555698395,0.01046075951308012,-0.00992626789957285,Normal,Normal
144430411872,9.1716890335083,-0.12921242415905,0.41904306411743164,-0.02832804247736931,0.0886492058634758,-0.011147962883114815,Normal,Normal
144430414307,9.301200866699219,-0.16031911969184875,0.06939185410737991,-0.017332790419459343,0.13568444550037384,-0.010537114925682545,Normal,Normal
144430416743,9.545269012451172,-0.27038896083831787,-0.5267201066017151,-0.013667707331478596,0.1265217363834381,-0.001374406274408102,Normal,Normal
144430419178,9.868598937988281,-0.41186460852622986,-1.189831018447876,-0.0014507622690871358,0.06910209357738495,0.008399149402976036,Normal,Normal
144430421613,10.239486694335938,-0.5267201066017151,-1.7380865812301636,0.004046862944960594,-0.029855160042643547,0.023059483617544174,Normal,Normal
144430424048,10.404890060424805,-0.5985047817230225,-1.8864415884017944,0.007101099472492933,-0.1336991935968399,0.03771981969475746,Normal,Normal
144430426483,10.339984893798828,-0.6176473498344421,-1.5777673721313477,0.015652960166335106,-0.20394663512706757,0.04749337583780289,Normal,Normal
144430428919,10.13898754119873,-0.5817549824714661,-0.9601200819015503,0.016874656081199646,-0.21066594123840332,0.04871506989002228,Normal,Normal
144430431354,9.875777244567871,-0.5099703073501587,-0.32572299242019653,0.018096350133419037,-0.16301986575126648,0.04016320779919624,Normal,Normal
144430433789,9.707980155944824,-0.4262215197086334,0.1579262912273407,0.02176143415272236,-0.06345175951719284,0.02489202655851841,Normal,Normal
144430436224,9.633803367614746,-0.37118661403656006,0.3161516785621643,0.018707197159528732,0.04527905210852623,0.004734066314995289,Normal,Normal
144430438660,9.789336204528809,-0.37836506962776184,0.035892341285943985,0.018707197159528732,0.13140851259231567,-0.015423892997205257,Normal,Normal
144430441095,10.117452621459961,-0.4453641176223755,-0.5985047817230225,0.018707197159528732,0.16134002804756165,-0.03008422814309597,Normal,Normal
144430443530,10.395318984985352,-0.5506483316421509,-1.2783654928207397,0.013209572061896324,0.13201937079429626,-0.037414394319057465,Normal,Normal
144430445965,10.555638313293457,-0.6343970894813538,-1.7907286882400513,0.009544488042593002,0.05932854115962982,-0.03802524134516716,Normal,Normal
144430448400,10.546066284179688,-0.6774678826332092,-1.92951238155365,0.005879404954612255,-0.024968381971120834,-0.031916771084070206,Normal,Normal
144430450836,10.3016996383667,-0.6176473498344421,-1.6423736810684204,0.00038177953683771193,-0.08788564801216125,-0.02092151902616024,Normal,Normal
144430453271,9.887741088867188,-0.521934449672699,-1.0390832424163818,0.004657710436731577,-0.10376767814159393,-0.016645587980747223,Normal,Normal
144430455706,9.439984321594238,-0.43579283356666565,-0.3233301639556885,0.0009926267666742206,-0.07017108052968979,-0.00992626789957285,Normal,Normal
144430458141,9.023334503173828,-0.3233301639556885,0.27038896083831787,0.005268557462841272,0.009239064529538155,-0.010537114925682545,Normal,Normal
144430460577,8.851051330566406,-0.2273181527853012,0.4668995141983032,0.012598725035786629,0.09720107167959213,-0.011147962883114815,Normal,Normal
144430463012,8.980263710021973,-0.21774685382843018,0.20099709928035736,0.012598725035786629,0.15950748324394226,-0.012980503961443901,Normal,Normal
144430465447,9.322735786437988,-0.2826521694660187,-0.39511483907699585,0.007711946498602629,0.1662268042564392,-0.00992626789957285,Normal,Normal
144430467882,9.746265411376953,-0.3807578980922699,-1.1228320598602295,0.012598725035786629,0.11247225105762482,-0.001985253533348441,Normal,Normal
144430470318,10.13898754119873,-0.4549354016780853,-1.7572290897369385,0.01748550310730934,0.006184828467667103,0.010231691412627697,Normal,Normal
144430472753,10.325628280639648,-0.49322056770324707,-2.035095691680908,0.008933641016483307,-0.10376767814159393,0.021837789565324783,Normal,Normal
144430475188,10.325628280639648,-0.48843491077423096,-1.8601205348968506,0.011987877078354359,-0.19783815741539001,0.028557108715176582,Normal,Normal
144430477623,10.115059852600098,-0.4621138870716095,-1.3022937774658203,0.0028251686599105597,-0.23143476247787476,0.03649812191724777,Normal,Normal
144430480058,9.796515464782715,-0.4549354016780853,-0.5817549824714661,-0.0008399150101467967,-0.2015032321214676,0.030389651656150818,Normal,Normal
144430482494,9.49501895904541,-0.41904306411743164,0.07417750358581543,0.0034360159188508987,-0.11048699915409088,0.021837789565324783,Normal,Normal
144430484929,9.28445053100586,-0.4142574071884155,0.4668995141983032,-0.0051158457063138485,0.009849912486970425,0.010842538438737392,Normal,Normal
144430487364,9.301200866699219,-0.46450668573379517,0.38793638348579407,-0.007559234742075205,0.12041326612234116,0.004734066314995289,Normal,Normal
144430489799,9.552447319030762,-0.5530411601066589,-0.09092725813388824,-0.008780929259955883,0.1814979910850525,-0.0068720318377017975,Normal,Normal
144430492235,9.859027862548828,-0.6631109714508057,-0.7779664397239685,-0.012446013279259205,0.18271969258785248,-0.005650337319821119,Normal,Normal
144430494670,10.217950820922852,-0.7253243923187256,-1.4557334184646606,-0.010002624243497849,0.12407834827899933,-0.0050394898280501366,Normal,Normal
144430497105,10.491031646728516,-0.7588238716125488,-1.89840567111969,-0.009391776286065578,0.022066857665777206,-0.006261184345930815,Normal,Normal
144430499540,10.44796085357666,-0.7277171611785889,-1.8768702745437622,-0.014278554357588291,-0.07750124484300613,-0.001985253533348441,Normal,Normal
144430501976,10.16291618347168,-0.6631109714508057,-1.4198411703109741,-0.0014507622690871358,-0.13736428320407867,-0.00259610079228878,Normal,Normal
144430504411,9.803693771362305,-0.6248258352279663,-0.7636095285415649,-0.00022906772210262716,-0.14347274601459503,-0.0068720318377017975,Normal,Normal
144430506846,9.430413246154785,-0.5650052428245544,-0.08614161610603333,0.0028251686599105597,-0.09765920788049698,-0.01175880990922451,Normal,Normal
144430509281,9.140582084655762,-0.5482555031776428,0.3927220106124878,0.010766183026134968,-0.015805672854185104,-0.014813045971095562,Normal,Normal
144430511717,9.066405296325684,-0.5841478109359741,0.5051847100257874,0.01382041908800602,0.06726955622434616,-0.016645587980747223,Normal,Normal
144430514152,9.257830619812012,-0.5626124143600464,0.2105683982372284,0.01626380905508995,0.13018682599067688,-0.016034740954637527,Normal,Normal
144430516587,9.607481956481934,-0.5410770177841187,-0.3520440459251404,0.023593975231051445,0.13873867690563202,-0.01725643500685692,Normal,Normal
144430519022,10.040882110595703,-0.5482555031776428,-1.0223335027694702,0.026037365198135376,0.09353598952293396,-0.015423892997205257,Normal,Normal
144430521458,10.363913536071777,-0.5147559642791748,-1.537089467048645,0.03214583545923233,0.011071606539189816,-0.012369656935334206,Normal,Normal
144430523892,10.43360424041748,-0.4812564551830292,-1.714158296585083,0.027259059250354767,-0.0817771777510643,-0.011147962883114815,Normal,Normal
144430526328,10.220343589782715,-0.48843491077423096,-1.5155540704727173,0.02970244735479355,-0.1477486789226532,-0.008093725889921188,Normal,Normal
144430528763,9.892526626586914,-0.5051847100257874,-1.0965110063552856,0.023593975231051445,-0.16546325385570526,-0.005650337319821119,Normal,Normal
144430531198,9.492626190185547,-0.5267201066017151,-0.5650052428245544,0.016874656081199646,-0.1355317384004593,-0.001985253533348441,Normal,Normal
144430533633,9.19561767578125,-0.5458626747131348,-0.13878370821475983,0.018707197159528732,-0.06223006546497345,0.0035123717971146107,Normal,Normal
144430536069,9.109476089477539,-0.5865406394004822,0.031106693670153618,0.0016034740256145597,0.015958385542035103,0.0035123717971146107,Normal,Normal
144430538504,9.243474006652832,-0.5530411601066589,-0.10767702013254166,0.0028251686599105597,0.09048175066709518,0.005955760832875967,Normal,Normal
144430540939,9.557232856750488,-0.5123631358146667,-0.5123631358146667,-0.0038941511884331703,0.12163496017456055,0.0029015245381742716,Normal,Normal
144430543374,10.062417030334473,-0.4956133961677551,-1.1180464029312134,-0.010002624243497849,0.09903360903263092,-0.001374406274408102,Normal,Normal
144430545810,10.491031646728516,-0.44775694608688354,-1.6112669706344604,-0.01122431829571724,0.03367295488715172,-0.006261184345930815,Normal,Normal
144430548245,10.651350975036621,-0.4501497745513916,-1.7955143451690674,-0.010613471269607544,-0.04756972938776016,-0.00992626789957285,Normal,Normal
144430550680,10.577173233032227,-0.4956133961677551,-1.6495521068572998,-0.017332790419459343,-0.11903885751962662,-0.012980503961443901,Normal,Normal
144430553115,10.328021049499512,-0.5434698462486267,-1.2448660135269165,-0.015500249341130257,-0.15141376852989197,-0.012369656935334206,Normal,Normal
144430555551,9.878170013427734,-0.5458626747131348,-0.6367899179458618,-0.009391776286065578,-0.1349208950996399,-0.013591351918876171,Normal,Normal
144430557986,9.557232856750488,-0.5123631358146667,-0.16510476171970367,-0.007559234742075205,-0.07383616268634796,-0.014813045971095562,Normal,Normal
144430560421,9.39452075958252,-0.41904306411743164,0.08853443711996078,-0.0014507622690871358,0.0025197449140250683,-0.01969982497394085,Normal,Normal
144430562856,9.38734245300293,-0.33529427647590637,0.031106693670153618,0.010766183026134968,0.07398887723684311,-0.025197450071573257,Normal,Normal
144430565292,9.550054550170898,-0.3113660514354706,-0.3281157910823822,0.014431266114115715,0.10758547484874725,-0.02641914412379265,Normal,Normal
144430567727,9.779765129089355,-0.3568296730518341,-0.8739784955978394,0.023593975231051445,0.10269869863986969,-0.02641914412379265,Normal,Normal
144430570162,9.945169448852539,-0.4262215197086334,-1.378864049911499,0.02664821222424507,0.05199837312102318,-0.020310672000050545,Normal,Normal
144430572597,10.009775161743164,-0.4956133961677551,-1.6686947345733643,0.03092414326965809,-0.013973130844533443,-0.01175880990922451,Normal,Normal
144430575033,9.945169448852539,-0.5506483316421509,-1.623231053352356,0.033978380262851715,-0.07505785673856735,-0.0007635590736754239,Normal,Normal
144430577468,9.705587387084961,-0.5697908997535706,-1.2281162738800049,0.03336753323674202,-0.09949174523353577,0.009620844386518002,Normal,Normal
144430579903,9.382556915283203,-0.521934449672699,-0.6152545213699341,0.027259059250354767,-0.07811209559440613,0.017561858519911766,Normal,Normal
144430582338,9.111868858337402,-0.4573282301425934,-0.038285162299871445,0.02970244735479355,-0.015805672854185104,0.01695101149380207,Normal,Normal
144430584773,8.918049812316895,-0.4214358925819397,0.3400799036026001,0.02420482225716114,0.07826480269432068,0.009620844386518002,Normal,Normal
144430587209,8.925228118896484,-0.4405784606933594,0.33768710494041443,0.018096350133419037,0.15767495334148407,0.004123218823224306,Normal,Normal
144430589644,9.159725189208984,-0.5554339289665222,-0.06699903309345245,0.011987877078354359,0.19615831971168518,0.0004581354442052543,Normal,Normal
144430592079,9.535696983337402,-0.6990033388137817,-0.7468597888946533,0.007101099472492933,0.17294612526893616,0.0004581354442052543,Normal,Normal
144430594514,9.930811882019043,-0.8042874932289124,-1.4246268272399902,-0.006948387715965509,0.09475768357515335,0.0016798300202935934,Normal,Normal
144430596950,10.320842742919922,-0.8282157182693481,-1.9055840969085693,-0.010002624243497849,-0.022524992004036903,0.004123218823224306,Normal,Normal
144430599385,10.577173233032227,-0.7612167000770569,-2.0685951709747314,-0.018554486334323883,-0.14469444751739502,0.0022906772792339325,Normal,Normal
144430601820,10.677672386169434,-0.6487540602684021,-1.8290138244628906,-0.027717193588614464,-0.24304085969924927,-0.0038177953101694584,Normal,Normal
144430604255,10.44078254699707,-0.5362913608551025,-1.1754741668701172,-0.020997874438762665,-0.276637464761734,-0.016645587980747223,Normal,Normal
144430606690,10.04566764831543,-0.45972105860710144,-0.41904306411743164,-0.02405211143195629,-0.2399866133928299,-0.03374931216239929,Normal,Normal
144430609126,9.657731056213379,-0.4334000051021576,0.1579262912273407,-0.022219568490982056,-0.15385715663433075,-0.04718795046210289,Normal,Normal
144430611561,9.396913528442383,-0.40707895159721375,0.39990049600601196,-0.009391776286065578,-0.03962871432304382,-0.05512896552681923,Normal,Normal
144430613996,9.310771942138672,-0.4668995141983032,0.1866401731967926,-0.0038941511884331703,0.057496000081300735,-0.06001574173569679,Normal,Normal
144430616431,9.437591552734375,-0.521934449672699,-0.385543555021286,0.005879404954612255,0.11125055700540543,-0.054518118500709534,Normal,Normal
144430618867,9.681659698486328,-0.5315057039260864,-1.1084750890731812,0.015042114071547985,0.10330954194068909,-0.04413371533155441,Normal,Normal
144430621302,9.947562217712402,-0.5123631358146667,-1.7356936931610107,0.02664821222424507,0.052609220147132874,-0.03130592033267021,Normal,Normal
144430623737,10.100702285766602,-0.46450668573379517,-2.1068804264068604,0.03336753323674202,-0.031076854094862938,-0.01725643500685692,Normal,Normal
144430626172,9.923633575439453,-0.4381856322288513,-1.9824535846710205,0.043141089379787445,-0.0958266630768776,-0.0068720318377017975,Normal,Normal
144430628607,9.600303649902344,-0.4405784606933594,-1.501197099685669,0.04802786558866501,-0.11903885751962662,0.0010689827613532543,Normal,Normal
144430631043,9.214759826660156,-0.4405784606933594,-0.8668000102043152,0.05047125369310379,-0.08849649876356125,0.007177455350756645,Normal,Normal
144430633478,8.915657043457031,-0.4214358925819397,-0.31375887989997864,0.04497363045811653,-0.01763821393251419,0.011453386396169662,Normal,Normal
144430635913,8.793622970581055,-0.4166502356529236,0.0023928226437419653,0.043141089379787445,0.0752105712890625,0.009009997360408306,Normal,Normal
144430638348,9.052047729492188,-0.41186460852622986,-0.11964113265275955,0.0358109213411808,0.14912308752536774,0.0035123717971146107,Normal,Normal
144430640784,9.47348403930664,-0.42382872104644775,-0.5769693851470947,0.027259059250354767,0.1784437596797943,-0.0050394898280501366,Normal,Normal
144430643219,9.976275444030762,-0.4405784606933594,-1.2185449600219727,0.013209572061896324,0.14790138602256775,-0.013591351918876171,Normal,Normal
144430645654,10.431211471557617,-0.5171487927436829,-1.8385851383209229,0.0028251686599105597,0.06543701142072678,-0.016645587980747223,Normal,Normal
144430648089,10.747063636779785,-0.610468864440918,-2.231307029724121,-0.011835165321826935,-0.044515494257211685,-0.01847812905907631,Normal,Normal
144430650525,10.754241943359375,-0.6822535395622253,-2.1714866161346436,-0.01794363744556904,-0.1465269923210144,-0.01847812905907631,Normal,Normal
144430652960,10.474282264709473,-0.7085745930671692,-1.6663018465042114,-0.028938889503479004,-0.2015032321214676,-0.01969982497394085,Normal,Normal
144430655395,10.03131103515625,-0.643968403339386,-0.8955138921737671,-0.03626905754208565,-0.19295138120651245,-0.02092151902616024,Normal,Normal
144430657830,9.502198219299316,-0.5291129350662231,-0.10289137065410614,-0.03687990456819534,-0.11781716346740723,-0.02641914412379265,Normal,Normal
144430660265,9.05444049835205,-0.4812564551830292,0.4405784606933594,-0.03504735976457596,-0.006032116711139679,-0.036192700266838074,Normal,Normal
144430662701,8.918049812316895,-0.44775694608688354,0.4668995141983032,-0.02710634656250477,0.10330954194068909,-0.04413371533155441,Normal,Normal
144430665136,8.96829891204834,-0.45254257321357727,0.07896314561367035,-0.02038702741265297,0.17416782677173615,-0.047798797488212585,Normal,Normal
144430667571,9.226723670959473,-0.5147559642791748,-0.6415755748748779,-0.009391776286065578,0.18271969258785248,-0.046577103435993195,Normal,Normal
144430670006,9.583553314208984,-0.6200401782989502,-1.4533406496047974,0.0028251686599105597,0.12285665422677994,-0.03924693539738655,Normal,Normal
144430672442,9.861420631408691,-0.6870391964912415,-2.049452543258667,0.01382041908800602,0.011682453565299511,-0.02764083817601204,Normal,Normal
144430674877,9.947562217712402,-0.6894320249557495,-2.183450698852539,0.024815669283270836,-0.1074327602982521,-0.014202198944985867,Normal,Normal
144430677312,9.89013385772705,-0.6655037999153137,-1.9079769849777222,0.031534988433122635,-0.18989713490009308,-0.004428642801940441,Normal,Normal
144430679747,9.693623542785645,-0.6008976101875305,-1.3022937774658203,0.0364217683672905,-0.21799612045288086,-0.00015271181473508477,Normal,Normal
144430682183,9.485447883605957,-0.4980062246322632,-0.5745765566825867,0.04680617153644562,-0.18073442578315735,-0.0032069480512291193,Normal,Normal
144430684618,9.377771377563477,-0.4046861231327057,-0.02153540402650833,0.044362783432006836,-0.0952158197760582,-0.012369656935334206,Normal,Normal
144430687053,9.413662910461426,-0.35443684458732605,0.20578274130821228,0.041919391602277756,0.01046075951308012,-0.02641914412379265,Normal,Normal
144430689488,9.550054550170898,-0.3329014480113983,0.07178468257188797,0.04253023862838745,0.10392039269208908,-0.04046862944960594,Normal,Normal
144430691924,9.885348320007324,-0.4046861231327057,-0.4573282301425934,0.03458922728896141,0.1533990204334259,-0.04840964451432228,Normal,Normal
144430694359,10.27777099609375,-0.4740779995918274,-1.1635099649429321,0.024815669283270836,0.1424037665128708,-0.05085303261876106,Normal,Normal
144430696794,10.522138595581055,-0.5458626747131348,-1.7309080362319946,0.019928891211748123,0.08192989230155945,-0.04718795046210289,Normal,Normal
144430699229,10.562816619873047,-0.5602195858955383,-1.9896320104599,0.007711946498602629,0.006184828467667103,-0.04230117425322533,Normal,Normal
144430701665,10.323235511779785,-0.5291129350662231,-1.83619225025177,-0.005726693198084831,-0.06100837141275406,-0.03558185324072838,Normal,Normal
144430704100,9.837491989135742,-0.47168517112731934,-1.2951152324676514,-0.008780929259955883,-0.08422056585550308,-0.027029991149902344,Normal,Normal
144430706535,9.375378608703613,-0.38315072655677795,-0.701396107673645,-0.016721943393349648,-0.06100837141275406,-0.025197450071573257,Normal,Normal
144430708970,8.994620323181152,-0.32572299242019653,-0.24885354936122894,-0.019776180386543274,-0.0035887276753783226,-0.025808297097682953,Normal,Normal
144430711405,8.755337715148926,-0.28983065485954285,-0.064606212079525,-0.018554486334323883,0.061771929264068604,-0.02764083817601204,Normal,Normal
144430713841,8.86780071258545,-0.2826521694660187,-0.28983065485954285,-0.015500249341130257,0.10697462409734726,-0.03008422814309597,Normal,Normal
144430716276,9.317950248718262,-0.27756741642951965,-0.8955138921737671,-0.017332790419459343,0.09536852687597275,-0.029473381116986275,Normal,Normal
144430718711,9.887741088867188,-0.2922234535217285,-1.5897315740585327,-0.011835165321826935,0.03245126083493233,-0.02764083817601204,Normal,Normal
144430721146,10.416853904724121,-0.3089732229709625,-2.1092731952667236,-0.007559234742075205,-0.07505785673856735,-0.025808297097682953,Normal,Normal
144430723582,10.780563354492188,-0.3041875660419464,-2.3030917644500732,-0.0008399150101467967,-0.18928629159927368,-0.022754060104489326,Normal,Normal
144430726017,10.759027481079102,-0.2946162819862366,-1.9752750396728516,0.0028251686599105597,-0.2644205093383789,-0.020310672000050545,Normal,Normal
144430728452,10.488638877868652,-0.2727817893028259,-1.3046865463256836,0.005268557462841272,-0.27358320355415344,-0.016645587980747223,Normal,Normal
144430730887,10.095916748046875,-0.26560330390930176,-0.521934449672699,0.01382041908800602,-0.21005509793758392,-0.016034740954637527,Normal,Normal
144430733323,9.617053031921387,-0.2826521694660187,0.20578274130821228,0.011987877078354359,-0.08360971510410309,-0.015423892997205257,Normal,Normal
144430735758,9.229117393493652,-0.3089732229709625,0.6272186636924744,0.019318044185638428,0.0758214145898819,-0.017867282032966614,Normal,Normal
144430738193,9.09272575378418,-0.32572299242019653,0.5362913608551025,0.024815669283270836,0.22242476046085358,-0.01847812905907631,Normal,Normal
144430740628,9.176474571228027,-0.3496512174606323,-0.019142581149935722,0.022372281178832054,0.3079433739185333,-0.020310672000050545,Normal,Normal
144430743064,9.497411727905273,-0.368793785572052,-0.9074779748916626,0.02542651630938053,0.31649523973464966,-0.016034740954637527,Normal,Normal
144430745499,9.92124080657959,-0.4214358925819397,-1.8146568536758423,0.021150587126612663,0.23586340248584747,-0.010537114925682545,Normal,Normal
144430747934,10.201201438903809,-0.4453641176223755,-2.417947292327881,0.018096350133419037,0.10636378079652786,-0.008093725889921188,Normal,Normal
144430750369,10.220343589782715,-0.4334000051021576,-2.5160529613494873,0.018707197159528732,-0.036574479192495346,-0.0050394898280501366,Normal,Normal
144430752805,10.103095054626465,-0.4142574071884155,-2.166700839996338,0.005879404954612255,-0.1459161341190338,-0.005650337319821119,Normal,Normal
144430755240,9.842277526855469,-0.34247273206710815,-1.4557334184646606,0.0009926267666742206,-0.2002815455198288,-0.009315420873463154,Normal,Normal
144430757675,9.566803932189941,-0.28504499793052673,-0.6511468887329102,0.005879404954612255,-0.18501035869121552,-0.017867282032966614,Normal,Normal
144430760110,9.50459098815918,-0.22971096634864807,-0.06939185410737991,-0.006337540224194527,-0.12392564117908478,-0.02641914412379265,Normal,Normal
144430762546,9.703194618225098,-0.18903298676013947,0.10049854964017868,-0.007559234742075205,-0.04818057641386986,-0.03436015918850899,Normal,Normal
144430764981,10.050453186035156,-0.17946170270442963,-0.07417750358581543,-0.008780929259955883,0.014125842601060867,-0.04107947647571564,Normal,Normal
144430767416,10.467103958129883,-0.1866401731967926,-0.5123631358146667,-0.004504998680204153,0.0361163429915905,-0.04474456235766411,Normal,Normal
144430769851,10.9002046585083,-0.19142581522464752,-1.0941181182861328,-0.007559234742075205,0.022066857665777206,-0.04107947647571564,Normal,Normal
144430772286,11.175678253173828,-0.21296121180057526,-1.5538392066955566,-0.0051158457063138485,-0.03290939703583717,-0.036192700266838074,Normal,Normal
144430774722,11.13021469116211,-0.20578274130821228,-1.7261223793029785,-0.002061609411612153,-0.08605311065912247,-0.025197450071573257,Normal,Normal
144430777157,10.773385047912598,-0.20817556977272034,-1.4940186738967896,-0.005726693198084831,-0.11659546941518784,-0.012369656935334206,Normal,Normal
144430779592,10.18445110321045,-0.1698904037475586,-0.9888339638710022,0.007101099472492933,-0.0958266630768776,-0.007482878863811493,Normal,Normal
144430782027,9.538089752197266,-0.13878370821475983,-0.3975076675415039,0.0064902519807219505,-0.02680092304944992,-0.004428642801940441,Normal,Normal
144430784463,8.937192916870117,-0.13878370821475983,0.02632104977965355,0.008933641016483307,0.0745997205376625,0.0016798300202935934,Normal,Normal
144430786898,8.546863555908203,-0.1818545162677765,0.13639089465141296,0.021150587126612663,0.17477867007255554,0.0065666078589856625,Normal,Normal
144430789333,8.472685813903809,-0.2874378263950348,-0.20817556977272034,0.019928891211748123,0.2444152534008026,0.013285927474498749,Normal,Normal
144430791768,8.812766075134277,-0.385543555021286,-0.9553344249725342,0.02053973823785782,0.24380441009998322,0.01817270554602146,Normal,Normal
144430794204,9.38016414642334,-0.45972105860710144,-1.8194425106048584,0.018096350133419037,0.16500511765480042,0.023059483617544174,Normal,Normal
144430796639,10.0073823928833,-0.490827739238739,-2.4945175647735596,0.010766183026134968,0.036727190017700195,0.024281177669763565,Normal,Normal
144430799074,10.615458488464355,-0.4980062246322632,-2.810669183731079,0.010155336000025272,-0.12270393967628479,0.026724567636847496,Normal,Normal
144430801509,10.96032428741455,-0.48364928364753723,-2.604886531829834,0.004046862944960594,-0.25892287492752075,0.02244863659143448,Normal,Normal
144430803945,10.861919403076172,-0.45254257321357727,-1.8146568536758423,-0.010002624243497849,-0.32245099544525146,0.013896775431931019,Normal,Normal
144430806380,10.610672950744629,-0.42382872104644775,-0.8042874932289124,-0.01122431829571724,-0.2937411665916443,-0.001374406274408102,Normal,Normal
144430808815,10.337592124938965,-0.37836506962776184,0.12681959569454193,-0.018554486334323883,-0.18928629159927368,-0.01847812905907631,Normal,Normal
144430811250,10.064809799194336,-0.2946162819862366,0.7588238716125488,-0.02405211143195629,-0.03474193811416626,-0.03558185324072838,Normal,Normal
144430813686,9.937990188598633,-0.2632105052471161,0.8955138921737671,-0.014889402315020561,0.12163496017456055,-0.05329642444849014,Normal,Normal
144430816121,9.923633575439453,-0.2392822653055191,0.4860421121120453,-0.0130568603053689,0.24258272349834442,-0.06551336497068405,Normal,Normal
144430818556,10.06002426147461,-0.24406790733337402,-0.3616153299808502,-0.006948387715965509,0.27923354506492615,-0.06612421572208405,Normal,Normal
144430820991,10.194023132324219,-0.29700911045074463,-1.3453645706176758,0.00038177953683771193,0.23708508908748627,-0.06062658876180649,Normal,Normal
144430823427,10.261021614074707,-0.3616153299808502,-2.1858434677124023,0.008933641016483307,0.12468919903039932,-0.04718795046210289,Normal,Normal
144430825862,10.227521896362305,-0.39511483907699585,-2.6192433834075928,0.011377030052244663,-0.02008160389959812,-0.02641914412379265,Normal,Normal
144430828297,9.949954986572266,-0.35922250151634216,-2.475374937057495,0.01748550310730934,-0.1465269923210144,-0.0068720318377017975,Normal,Normal
144430830732,9.506983757019043,-0.3209373354911804,-1.8481563329696655,0.029091600328683853,-0.21066594123840332,0.009009997360408306,Normal,Normal
144430833168,9.109476089477539,-0.23210379481315613,-0.9768698215484619,0.03214583545923233,-0.1990598440170288,0.020616095513105392,Normal,Normal
144430835603,8.855836868286133,-0.15314064919948578,-0.14117653667926788,0.040697697550058365,-0.12270393967628479,0.024281177669763565,Normal,Normal
144430838038,8.86780071258545,-0.09092725813388824,0.37118661403656006,0.03703261539340019,-0.007253811229020357,0.021226942539215088,Normal,Normal
144430840473,9.159725189208984,-0.06699903309345245,0.41904306411743164,0.02664821222424507,0.10330954194068909,0.014507622458040714,Normal,Normal
144430842909,9.672088623046875,-0.12203395366668701,0.03349951654672623,0.030313294380903244,0.17783290147781372,0.004123218823224306,Normal,Normal
144430845343,10.3016996383667,-0.2105683982372284,-0.6894320249557495,0.02542651630938053,0.18577392399311066,0.0016798300202935934,Normal,Normal
144430847779,10.869097709655762,-0.33768710494041443,-1.470090389251709,0.011987877078354359,0.1265217363834381,-0.0032069480512291193,Normal,Normal
144430850214,11.163714408874512,-0.4621138870716095,-1.9920248985290527,0.0028251686599105597,0.025121092796325684,0.0010689827613532543,Normal,Normal
144430852649,11.175678253173828,-0.5602195858955383,-2.149951219558716,-0.010613471269607544,-0.07933378964662552,0.005344913341104984,Normal,Normal
144430855084,10.943573951721191,-0.5817549824714661,-1.9390836954116821,-0.02283041551709175,-0.15630054473876953,0.009009997360408306,Normal,Normal
144430857520,10.457531929016113,-0.5482555031776428,-1.3836497068405151,-0.0295497365295887,-0.18439951539039612,0.007788302376866341,Normal,Normal
144430859955,9.866206169128418,-0.46450668573379517,-0.6894320249557495,-0.038101598620414734,-0.14408360421657562,0.0010689827613532543,Normal,Normal
144430862390,9.337093353271484,-0.37118661403656006,-0.14356936514377594,-0.03199312463402748,-0.054899897426366806,-0.01175880990922451,Normal,Normal
144430864825,9.011369705200195,-0.2994019389152527,0.07417750358581543,-0.03565821051597595,0.04650074616074562,-0.024586603045463562,Normal,Normal
144430867261,8.949156761169434,-0.26081767678260803,-0.15074782073497772,-0.03749075159430504,0.1259108930826187,-0.03924693539738655,Normal,Normal
144430869696,9.152546882629395,-0.22492532432079315,-0.7253243923187256,-0.01916533336043358,0.1533990204334259,-0.046577103435993195,Normal,Normal
144430872131,9.559625625610352,-0.2153540402650833,-1.4868401288986206,-0.0130568603053689,0.11613733321428299,-0.05268557742238045,Normal,Normal
144430874566,9.983454704284668,-0.18424734473228455,-2.097309112548828,0.0022143214009702206,0.01901262067258358,-0.051463883370161057,Normal,Normal
144430877002,10.201201438903809,-0.13639089465141296,-2.3054845333099365,0.01748550310730934,-0.08971819281578064,-0.04840964451432228,Normal,Normal
144430879437,10.198808670043945,-0.08374879509210587,-2.032702922821045,0.029091600328683853,-0.17706935107707977,-0.04169032722711563,Normal,Normal
144430881872,10.0073823928833,-0.062213387340307236,-1.3645070791244507,0.03886515647172928,-0.20822255313396454,-0.0331384651362896,Normal,Normal
144430884307,9.640981674194336,-0.019142581149935722,-0.46450668573379517,0.048638712614774704,-0.16912832856178284,-0.020310672000050545,Normal,Normal
144430886743,9.279664993286133,-0.04546362906694412,0.34725838899612427,0.059023115783929825,-0.06528430432081223,-0.0068720318377017975,Normal,Normal
144430889178,8.997013092041016,-0.1339980661869049,0.8668000102043152,0.06390989571809769,0.08131904155015945,0.0065666078589856625,Normal,Normal
144430891613,8.987442016601562,-0.17228323221206665,0.8524430394172668,0.0626882016658783,0.21204034984111786,0.017561858519911766,Normal,Normal
144430894048,9.320343017578125,-0.1986042857170105,0.25363919138908386,0.05719057470560074,0.2890070974826813,0.029778804630041122,Normal,Normal
144430896484,9.847063064575195,-0.2560320198535919,-0.797109067440033,0.04253023862838745,0.2853420376777649,0.03649812191724777,Normal,Normal
144430898919,10.416853904724121,-0.3113660514354706,-1.9127626419067383,0.03092414326965809,0.19066070020198822,0.04321744292974472,Normal,Normal
144430901354,10.888240814208984,-0.39032918214797974,-2.8130621910095215,0.011377030052244663,0.034283801913261414,0.04504998400807381,Normal,Normal
144430903789,11.127821922302246,-0.4501497745513916,-3.2177481651306152,-0.008170082233846188,-0.14164020121097565,0.04199574887752533,Normal,Normal
144430906225,10.98185920715332,-0.4860421121120453,-2.98295259475708,-0.026495499536395073,-0.2778591513633728,0.03161134570837021,Normal,Normal
144430908660,10.531709671020508,-0.47168517112731934,-2.1882362365722656,-0.04359922185540199,-0.334057092666626,0.01572931744158268,Normal,Normal
144430911095,10.004989624023438,-0.44297128915786743,-1.1276177167892456,-0.06070294603705406,-0.29618456959724426,0.0004581354442052543,Normal,Normal
144430913530,9.46630573272705,-0.41186460852622986,-0.11246266216039658,-0.06253548711538315,-0.18256697058677673,-0.019088976085186005,Normal,Normal
144430915966,9.075976371765137,-0.3640081584453583,0.5745765566825867,-0.0686439573764801,-0.015805672854185104,-0.04107947647571564,Normal,Normal
144430918401,8.97787094116211,-0.3041875660419464,0.7157530784606934,-0.0680331140756607,0.14790138602256775,-0.0587940476834774,Normal,Normal
144430920836,9.219545364379883,-0.2826521694660187,0.25363919138908386,-0.048486001789569855,0.24930204451084137,-0.06978929787874222,Normal,Normal
144430923271,9.585947036743164,-0.2922234535217285,-0.5315057039260864,-0.03993413969874382,0.2725142240524292,-0.072843536734581,Normal,Normal
144430925706,9.89970588684082,-0.3281157910823822,-1.3381860256195068,-0.012446013279259205,0.21265120804309845,-0.06123743951320648,Normal,Normal
144430928142,10.13180923461914,-0.34247273206710815,-1.92951238155365,0.007711946498602629,0.09720107167959213,-0.045355409383773804,Normal,Normal
144430930577,10.14616584777832,-0.3400799036026001,-2.0470597743988037,0.02420482225716114,-0.036574479192495346,-0.025808297097682953,Normal,Normal
144430933012,9.904491424560547,-0.30179476737976074,-1.6615161895751953,0.053525492548942566,-0.1336991935968399,-0.006261184345930815,Normal,Normal
144430935447,9.621838569641113,-0.20817556977272034,-1.0055837631225586,0.06757497787475586,-0.1740151196718216,0.008399149402976036,Normal,Normal
144430937883,9.214759826660156,-0.12203395366668701,-0.20817556977272034,0.07918107509613037,-0.14408360421657562,0.016340164467692375,Normal,Normal
144430940318,8.927620887756348,-0.0526420995593071,0.3448655605316162,0.09078717231750488,-0.054899897426366806,0.017561858519911766,Normal,Normal
144430942753,8.937192916870117,-0.035892341285943985,0.37836506962776184,0.0889546349644661,0.04405735805630684,0.021226942539215088,Normal,Normal
144430945188,9.166903495788574,-0.12442677468061447,-0.040677983313798904,0.08223531395196915,0.11919157207012177,0.016340164467692375,Normal,Normal
144430947624,9.573982238769531,-0.2560320198535919,-0.859621524810791,0.07368344813585281,0.14362546801567078,0.013896775431931019,Normal,Normal
144430950059,10.217950820922852,-0.4094717800617218,-1.8840487003326416,0.05169294774532318,0.09170344471931458,0.01817270554602146,Normal,Normal
144430952494,10.687243461608887,-0.48843491077423096,-2.6096723079681396,0.027869906276464462,-0.007253811229020357,0.01817270554602146,Normal,Normal
144430954929,10.845169067382812,-0.47647079825401306,-2.8034908771514893,0.0016034740256145597,-0.10926530510187149,0.019394399598240852,Normal,Normal
144430957365,10.749456405639648,-0.43579283356666565,-2.4681966304779053,-0.028938889503479004,-0.17768019437789917,0.010842538438737392,Normal,Normal
144430959800,10.318449020385742,-0.3161516785621643,-1.6926229000091553,-0.04115583375096321,-0.18867544829845428,-0.0032069480512291193,Normal,Normal
144430962235,9.660123825073242,-0.2273181527853012,-0.7157530784606934,-0.06436803191900253,-0.11720632016658783,-0.022754060104489326,Normal,Normal
144430964671,9.10229778289795,-0.17946170270442963,0.019142581149935722,-0.06742226332426071,0.000687203137204051,-0.04352286830544472,Normal,Normal
144430967106,8.781659126281738,-0.1698904037475586,0.2922234535217285,-0.07230904698371887,0.1259108930826187,-0.056961506605148315,Normal,Normal
144430969541,8.724231719970703,-0.21296121180057526,0.062213387340307236,-0.06620056927204132,0.21448373794555664,-0.0587940476834774,Normal,Normal
144430971976,9.056833267211914,-0.2994019389152527,-0.6631109714508057,-0.06131379306316376,0.2309766262769699,-0.054518118500709534,Normal,Normal
144430974412,9.61226749420166,-0.39032918214797974,-1.55623197555542,-0.038101598620414734,0.15767495334148407,-0.039857782423496246,Normal,Normal
144430976847,10.093523979187012,-0.3927220106124878,-2.166700839996338,-0.019776180386543274,0.0293970238417387,-0.020310672000050545,Normal,Normal
144430979282,10.46471118927002,-0.3568296730518341,-2.3437697887420654,-0.0014507622690871358,-0.11781716346740723,0.0029015245381742716,Normal,Normal
144430981717,10.577173233032227,-0.27038896083831787,-1.9606190919876099,0.02176143415272236,-0.23143476247787476,0.016340164467692375,Normal,Normal
144430984152,10.306485176086426,-0.16031911969184875,-1.048654556274414,0.03886515647172928,-0.2662530541419983,0.023059483617544174,Normal,Normal
144430986588,9.861420631408691,-0.08374879509210587,0.009571290574967861,0.05719057470560074,-0.20577916502952576,0.024281177669763565,Normal,Normal
144430989023,9.439984321594238,-0.09810572862625122,0.8548358678817749,0.07062921673059464,-0.07322531193494797,0.021226942539215088,Normal,Normal
144430991458,9.042476654052734,-0.17946170270442963,1.2735798358917236,0.07185091078281403,0.09842276573181152,0.01572931744158268,Normal,Normal
144430993893,8.918049812316895,-0.32572299242019653,1.0414760112762451,0.08223531395196915,0.25235626101493835,0.013285927474498749,Normal,Normal
144430996329,9.142974853515625,-0.490827739238739,0.19142581522464752,0.0749051421880722,0.3372640311717987,0.012675080448389053,Normal,Normal
144430998764,9.657731056213379,-0.5817549824714661,-1.0199406147003174,0.06635328382253647,0.3256579339504242,0.01572931744158268,Normal,Normal
144431001199,10.229914665222168,-0.5721837282180786,-2.173879384994507,0.05535803362727165,0.217537984251976,0.01511846948415041,Normal,Normal
144431003634,10.694421768188477,-0.45972105860710144,-2.968595504760742,0.029091600328683853,0.05322006717324257,0.007788302376866341,Normal,Normal
144431006070,10.804491996765137,-0.3089732229709625,-3.10528564453125,0.015042114071547985,-0.12331479042768478,-0.005650337319821119,Normal,Normal
144431008505,10.493424415588379,-0.1579262912273407,-2.557030200958252,-0.0051158457063138485,-0.2381540685892105,-0.024586603045463562,Normal,Normal
144431010940,9.916455268859863,-0.09810572862625122,-1.599302887916565,-0.018554486334323883,-0.2760266065597534,-0.04474456235766411,Normal,Normal
144431013375,9.279664993286133,-0.12921242415905,-0.5769693851470947,-0.0295497365295887,-0.2259371280670166,-0.055739812552928925,Normal,Normal
144431015811,8.793622970581055,-0.19142581522464752,0.22971096634864807,-0.03993413969874382,-0.11048699915409088,-0.06245913356542587,Normal,Normal
144431018246,8.656932830810547,-0.24167509377002716,0.5434698462486267,-0.03749075159430504,0.019623467698693275,-0.05635065957903862,Normal,Normal
144431020681,8.83669376373291,-0.28983065485954285,0.34247273206710815,-0.032603971660137177,0.11796987801790237,-0.04474456235766411,Normal,Normal
144431023116,9.236295700073242,-0.29700911045074463,-0.24646073579788208,-0.032603971660137177,0.1662268042564392,-0.023364907130599022,Normal,Normal
144431025551,9.847063064575195,-0.24406790733337402,-1.074975609779358,-0.025884652510285378,0.13751699030399323,-0.0032069480512291193,Normal,Normal
144431027987,10.335199356079102,-0.22013968229293823,-1.7787644863128662,-0.013667707331478596,0.05016583204269409,0.01572931744158268,Normal,Normal
144431030422,10.498209953308105,-0.1986042857170105,-2.049452543258667,-0.002061609411612153,-0.05428905040025711,0.030389651656150818,Normal,Normal
144431032857,10.320842742919922,-0.20338992774486542,-1.872084617614746,0.014431266114115715,-0.13736428320407867,0.04016320779919624,Normal,Normal
144431035292,9.854242324829102,-0.25363919138908386,-1.316650629043579,0.027259059250354767,-0.16424155235290527,0.04688252881169319,Normal,Normal
144431037728,9.26291561126709,-0.30658039450645447,-0.6224330067634583,0.029091600328683853,-0.12514732778072357,0.04749337583780289,Normal,Normal
144431040163,8.774480819702148,-0.33768710494041443,-0.064606212079525,0.0364217683672905,-0.035352785140275955,0.04688252881169319,Normal,Normal
144431042598,8.594719886779785,-0.38793638348579407,0.10767702013254166,0.0364217683672905,0.07643226534128189,0.03588727489113808,Normal,Normal
144431045033,8.812766075134277,-0.39032918214797974,-0.18424734473228455,0.039476003497838974,0.15645325183868408,0.020616095513105392,Normal,Normal
144431047468,9.279664993286133,-0.4046861231327057,-0.8258228898048401,0.04253023862838745,0.18271969258785248,0.007177455350756645,Normal,Normal
144431049904,9.854242324829102,-0.4094717800617218,-1.628016710281372,0.03214583545923233,0.14301460981369019,-0.00992626789957285,Normal,Normal
144431052339,10.36630630493164,-0.4214358925819397,-2.2480568885803223,0.031534988433122635,0.05016583204269409,-0.01969982497394085,Normal,Normal
144431054774,10.648958206176758,-0.44775694608688354,-2.482553482055664,0.016874656081199646,-0.05978667363524437,-0.030695075169205666,Normal,Normal
144431057209,10.713563919067383,-0.46450668573379517,-2.2648067474365234,0.007101099472492933,-0.15568970143795013,-0.03497100621461868,Normal,Normal
144431059645,10.412068367004395,-0.47168517112731934,-1.5586248636245728,0.010766183026134968,-0.19417306780815125,-0.03497100621461868,Normal,Normal
144431062080,9.923633575439453,-0.44297128915786743,-0.6056832075119019,-0.006337540224194527,-0.15385715663433075,-0.03374931216239929,Normal,Normal
144431064515,9.514162063598633,-0.3400799036026001,0.24646073579788208,-0.0014507622690871358,-0.05428905040025711,-0.0331384651362896,Normal,Normal
144431066950,9.219545364379883,-0.19142581522464752,0.7707880139350891,0.00038177953683771193,0.07398887723684311,-0.030695075169205666,Normal,Normal
144431069386,9.138189315795898,-0.09810572862625122,0.7995018362998962,-0.0038941511884331703,0.20043425261974335,-0.03008422814309597,Normal,Normal
144431071821,9.329915046691895,-0.09571290761232376,0.2632105052471161,0.011377030052244663,0.26457321643829346,-0.028251685202121735,Normal,Normal
144431074256,9.60508918762207,-0.14835500717163086,-0.5626124143600464,0.010766183026134968,0.2566322088241577,-0.02092151902616024,Normal,Normal
144431076691,9.868598937988281,-0.27038896083831787,-1.474876046180725,0.010766183026134968,0.17355698347091675,-0.005650337319821119,Normal,Normal
144431079127,10.074381828308105,-0.37118661403656006,-2.1643080711364746,0.018096350133419037,0.044668205082416534,0.016340164467692375,Normal,Normal
144431081562,10.196415901184082,-0.41904306411743164,-2.482553482055664,0.013209572061896324,-0.10193513333797455,0.03527642786502838,Normal,Normal
144431083997,10.12463092803955,-0.3927220106124878,-2.252842426300049,0.018707197159528732,-0.21921780705451965,0.04932591691613197,Normal,Normal
144431086432,9.827920913696289,-0.3568296730518341,-1.568196177482605,0.013209572061896324,-0.2638096511363983,0.051769305020570755,Normal,Normal
144431088867,9.444769859313965,-0.31375887989997864,-0.6655037999153137,0.015042114071547985,-0.226547971367836,0.0456608310341835,Normal,Normal
144431091303,9.123832702636719,-0.2826521694660187,0.09810572862625122,0.008322793990373611,-0.1220930963754654,0.031000498682260513,Normal,Normal
144431093738,8.93958568572998,-0.31854450702667236,0.46450668573379517,0.005879404954612255,0.014736690558493137,0.013896775431931019,Normal,Normal
144431096173,8.963513374328613,-0.40707895159721375,0.33768710494041443,0.0028251686599105597,0.13507360219955444,0.0004581354442052543,Normal,Normal
144431098608,9.214759826660156,-0.5027918815612793,-0.22013968229293823,-0.006337540224194527,0.21020781993865967,-0.010537114925682545,Normal,Normal
144431101044,9.631410598754883,-0.5362913608551025,-1.043868899345398,-0.0014507622690871358,0.2077644169330597,-0.01969982497394085,Normal,Normal
144431103479,10.043274879455566,-0.5626124143600464,-1.8218353986740112,-0.0051158457063138485,0.141182079911232,-0.02092151902616024,Normal,Normal
144431105914,10.323235511779785,-0.5482555031776428,-2.3222343921661377,-0.01122431829571724,0.026342788711190224,-0.025197450071573257,Normal,Normal
144431108349,10.347163200378418,-0.4573282301425934,-2.3509483337402344,0.0022143214009702206,-0.09155073016881943,-0.025197450071573257,Normal,Normal
144431110785,10.150951385498047,-0.35922250151634216,-1.9319051504135132,-0.002061609411612153,-0.17157171666622162,-0.02886253222823143,Normal,Normal
144431113220,9.746265411376953,-0.2922234535217285,-1.194616675376892,0.0034360159188508987,-0.1880646049976349,-0.03008422814309597,Normal,Normal
144431115655,9.190832138061523,-0.25363919138908386,-0.3520440459251404,0.012598725035786629,-0.13675342500209808,-0.031916771084070206,Normal,Normal
144431118090,8.71226692199707,-0.2632105052471161,0.3041875660419464,0.015042114071547985,-0.034131091088056564,-0.0331384651362896,Normal,Normal
144431120526,8.503792762756348,-0.2727817893028259,0.5195416212081909,0.028480753302574158,0.08254073560237885,-0.03008422814309597,Normal,Normal
144431122961,8.580363273620605,-0.3233301639556885,0.2225325107574463,0.032756682485342026,0.17111359536647797,-0.021532366052269936,Normal,Normal
144431125396,8.970691680908203,-0.36640095710754395,-0.46450668573379517,0.03886515647172928,0.20226679742336273,-0.008093725889921188,Normal,Normal
144431127831,9.581160545349121,-0.3807578980922699,-1.3621143102645874,0.03764346241950989,0.15645325183868408,0.004123218823224306,Normal,Normal
144431130267,10.191629409790039,-0.385543555021286,-2.118844509124756,0.03458922728896141,0.05322006717324257,0.014507622458040714,Normal,Normal
144431132702,10.574780464172363,-0.3735794425010681,-2.465803623199463,0.033978380262851715,-0.07078192383050919,0.021837789565324783,Normal,Normal
144431135137,10.641779899597168,-0.368793785572052,-2.307877540588379,0.029091600328683853,-0.1752368062734604,0.025502873584628105,Normal,Normal
144431137572,10.354341506958008,-0.4046861231327057,-1.654337763786316,0.014431266114115715,-0.21921780705451965,0.027946261689066887,Normal,Normal
144431140007,9.818050384521484,-0.4621138870716095,-0.766002357006073,0.005268557462841272,-0.174625962972641,0.021226942539215088,Normal,Normal
144431142443,9.329915046691895,-0.5195416212081909,0.038285162299871445,0.0022143214009702206,-0.07078192383050919,0.019394399598240852,Normal,Normal
144431144878,9.061619758605957,-0.5458626747131348,0.4956133961677551,-0.009391776286065578,0.06849125027656555,0.008399149402976036,Normal,Normal
144431147313,9.066405296325684,-0.5386841893196106,0.45972105860710144,-0.019776180386543274,0.18882815539836884,-0.00015271181473508477,Normal,Normal
144431149748,9.298808097839355,-0.5075774788856506,-0.02871387079358101,-0.020997874438762665,0.2615189850330353,-0.011147962883114815,Normal,Normal
144431152184,9.674481391906738,-0.49322056770324707,-0.8524430394172668,-0.0295497365295887,0.25479966402053833,-0.022754060104489326,Normal,Normal
144431154619,10.143773078918457,-0.490827739238739,-1.7524434328079224,-0.02160872146487236,0.1674485057592392,-0.029473381116986275,Normal,Normal
144431157054,10.529316902160645,-0.5147559642791748,-2.4083759784698486,-0.02283041551709175,0.0293970238417387,-0.03680354729294777,Normal,Normal
144431159489,10.677672386169434,-0.5554339289665222,-2.564208507537842,-0.019776180386543274,-0.12453648447990417,-0.036192700266838074,Normal,Normal
144431161925,10.510174751281738,-0.5506483316421509,-2.111665964126587,-0.0032833039294928312,-0.2399866133928299,-0.03374931216239929,Normal,Normal
144431164360,10.057631492614746,-0.490827739238739,-1.1874382495880127,-0.006948387715965509,-0.2748049199581146,-0.03130592033267021,Normal,Normal
144431166795,9.506983757019043,-0.4166502356529236,-0.11964113265275955,0.011377030052244663,-0.21982865035533905,-0.02764083817601204,Normal,Normal
144431169230,8.980263710021973,-0.3400799036026001,0.8162516355514526,0.02053973823785782,-0.08788564801216125,-0.03008422814309597,Normal,Normal
144431171666,8.709874153137207,-0.24646073579788208,1.2065808773040771,0.029091600328683853,0.0745997205376625,-0.031916771084070206,Normal,Normal
144431174101,8.760123252868652,-0.23210379481315613,0.9314061999320984,0.04375193640589714,0.20959696173667908,-0.0331384651362896,Normal,Normal
144431176536,9.018548965454102,-0.24406790733337402,0.13878370821475983,0.05047125369310379,0.28045526146888733,-0.02764083817601204,Normal,Normal
144431178971,9.454340934753418,-0.28983065485954285,-0.9433703422546387,0.05169294774532318,0.2615189850330353,-0.023975754156708717,Normal,Normal
144431181407,9.933204650878906,-0.2994019389152527,-2.0039889812469482,0.051082100719213486,0.16134002804756165,-0.016034740954637527,Normal,Normal
144431183842,10.210772514343262,-0.2679961323738098,-2.693420886993408,0.05291464552283287,0.012904148548841476,-0.009315420873463154,Normal,Normal
144431186277,10.292128562927246,-0.2512463629245758,-2.841775894165039,0.04375193640589714,-0.1355317384004593,-0.005650337319821119,Normal,Normal
144431188712,10.071989059448242,-0.22492532432079315,-2.4131617546081543,0.033978380262851715,-0.23693238198757172,-0.0038177953101694584,Normal,Normal
144431191147,9.59791088104248,-0.22013968229293823,-1.5442678928375244,0.02664821222424507,-0.2625879645347595,-0.001374406274408102,Normal,Normal
144431193583,9.090332984924316,-0.22013968229293823,-0.5578267574310303,0.015652960166335106,-0.19356222450733185,-0.00259610079228878,Normal,Normal
144431196018,8.774480819702148,-0.2512463629245758,0.14117653667926788,0.0028251686599105597,-0.07383616268634796,-0.007482878863811493,Normal,Normal
144431198453,8.719446182250977,-0.26560330390930176,0.41904306411743164,-0.008170082233846188,0.06726955622434616,-0.008704573847353458,Normal,Normal
144431200888,9.018548965454102,-0.33768710494041443,0.15074782073497772,-0.01916533336043358,0.17538951337337494,-0.009315420873463154,Normal,Normal
144431203324,9.569196701049805,-0.37597227096557617,-0.5506483316421509,-0.0295497365295887,0.21448373794555664,-0.007482878863811493,Normal,Normal
144431205759,10.203594207763672,-0.4549354016780853,-1.4174482822418213,-0.032603971660137177,0.17538951337337494,-0.00015271181473508477,Normal,Normal
144431208194,10.720743179321289,-0.5458626747131348,-2.1236300468444824,-0.032603971660137177,0.06849125027656555,0.0035123717971146107,Normal,Normal
144431210629,11.00578784942627,-0.5721837282180786,-2.4394826889038086,-0.038101598620414734,-0.06039752438664436,0.009620844386518002,Normal,Normal
144431213065,10.93848991394043,-0.5027918815612793,-2.181057929992676,-0.03565821051597595,-0.16790664196014404,0.010842538438737392,Normal,Normal
144431215500,10.639387130737305,-0.41904306411743164,-1.4605190753936768,-0.02832804247736931,-0.2112767994403839,0.004123218823224306,Normal,Normal
144431217935,10.165308952331543,-0.2994019389152527,-0.524327278137207,-0.02038702741265297,-0.18195612728595734,-0.008093725889921188,Normal,Normal
144431220370,9.609874725341797,-0.22013968229293823,0.38793638348579407,-0.011835165321826935,-0.0811663269996643,-0.025197450071573257,Normal,Normal
144431222806,9.107083320617676,-0.20578274130821228,0.9649057388305664,0.011377030052244663,0.05932854115962982,-0.04413371533155441,Normal,Normal
144431225241,8.86062240600586,-0.27038896083831787,0.9864411354064941,0.019928891211748123,0.19676917791366577,-0.05085303261876106,Normal,Normal
144431227676,8.941978454589844,-0.3209373354911804,0.4860421121120453,0.03336753323674202,0.28045526146888733,-0.05390727147459984,Normal,Normal
144431230111,9.329915046691895,-0.3520440459251404,-0.4286143481731415,0.048638712614774704,0.2822877764701843,-0.049020491540431976,Normal,Normal
144431232547,9.854242324829102,-0.37597227096557617,-1.446162223815918,0.05291464552283287,0.19615831971168518,-0.039857782423496246,Normal,Normal
144431234982,10.27059268951416,-0.3927220106124878,-2.1882362365722656,0.06146650388836861,0.052609220147132874,-0.02641914412379265,Normal,Normal
144431237417,10.457531929016113,-0.38315072655677795,-2.444268226623535,0.06940752267837524,-0.10560022294521332,-0.011147962883114815,Normal,Normal
144431239852,10.356734275817871,-0.34247273206710815,-2.183450698852539,0.0626882016658783,-0.226547971367836,0.0029015245381742716,Normal,Normal
144431242288,9.952347755432129,-0.3161516785621643,-1.4413765668869019,0.059023115783929825,-0.26930728554725647,0.011453386396169662,Normal,Normal
144431244723,9.545269012451172,-0.2994019389152527,-0.5865406394004822,0.049860406666994095,-0.22960221767425537,0.01572931744158268,Normal,Normal
144431247158,9.289237022399902,-0.2799602448940277,0.06699903309345245,0.03214583545923233,-0.12331479042768478,0.013896775431931019,Normal,Normal
144431249593,9.181260108947754,-0.22971096634864807,0.35922250151634216,0.02176143415272236,0.006184828467667103,0.007788302376866341,Normal,Normal
144431252028,9.238688468933105,-0.1866401731967926,0.21774685382843018,-0.0008399150101467967,0.1277434378862381,-0.001985253533348441,Normal,Normal
144431254464,9.578767776489258,-0.1579262912273407,-0.4334000051021576,-0.0008399150101467967,0.19676917791366577,-0.012980503961443901,Normal,Normal
144431256899,10.15573787689209,-0.14356936514377594,-1.3764712810516357,-0.017332790419459343,0.1814979910850525,-0.025197450071573257,Normal,Normal
144431259334,10.605887413024902,-0.13878370821475983,-2.2097716331481934,-0.03749075159430504,0.1008661538362503,-0.03436015918850899,Normal,Normal
144431261769,10.785348892211914,-0.1579262912273407,-2.652743101119995,-0.03077143058180809,-0.028633465990424156,-0.038636088371276855,Normal,Normal
144431264205,10.574780464172363,-0.23449662327766418,-2.5594229698181152,-0.04115583375096321,-0.13919681310653687,-0.03680354729294777,Normal,Normal
144431266640,10.091131210327148,-0.28983065485954285,-1.9728822708129883,-0.03871244564652443,-0.20577916502952576,-0.029473381116986275,Normal,Normal
144431269075,9.485447883605957,-0.3233301639556885,-1.072582721710205,-0.032603971660137177,-0.19539476931095123,-0.020310672000050545,Normal,Normal
144431271510,8.982656478881836,-0.3233301639556885,-0.24646073579788208,-0.027717193588614464,-0.1214822456240654,-0.01175880990922451,Normal,Normal
144431273946,8.812766075134277,-0.2679961323738098,0.24167509377002716,-0.01122431829571724,-0.019470756873488426,-0.0007635590736754239,Normal,Normal
144431276381,8.927620887756348,-0.2225325107574463,0.3041875660419464,-0.0014507622690871358,0.08681666851043701,0.0010689827613532543,Normal,Normal
144431278816,9.219545364379883,-0.19381862878799438,-0.04785645380616188,0.016874656081199646,0.15156647562980652,0.005344913341104984,Normal,Normal
144431281251,9.62901782989502,-0.2225325107574463,-0.6655037999153137,0.032756682485342026,0.168670192360878,0.008399149402976036,Normal,Normal
144431283687,10.127023696899414,-0.2799602448940277,-1.4126626253128052,0.032756682485342026,0.12407834827899933,0.012675080448389053,Normal,Normal
144431286122,10.610672950744629,-0.3520440459251404,-2.025524377822876,0.04375193640589714,0.03489464893937111,0.013896775431931019,Normal,Normal
144431288557,10.859526634216309,-0.4046861231327057,-2.190629243850708,0.05535803362727165,-0.07078192383050919,0.014507622458040714,Normal,Normal
144431290992,10.735099792480469,-0.39990049600601196,-1.8242281675338745,0.04130854457616806,-0.1355317384004593,0.012675080448389053,Normal,Normal
144431293428,10.385747909545898,-0.3496512174606323,-1.1180464029312134,0.051082100719213486,-0.14102935791015625,0.004734066314995289,Normal,Normal
144431295863,9.971489906311035,-0.28983065485954285,-0.3496512174606323,0.041919391602277756,-0.0811663269996643,-0.006261184345930815,Normal,Normal
144431298298,9.554840087890625,-0.20817556977272034,0.2560320198535919,0.03703261539340019,0.023288551717996597,-0.021532366052269936,Normal,Normal
144431300733,9.37298583984375,-0.23688943684101105,0.4262215197086334,0.039476003497838974,0.13751699030399323,-0.0325276181101799,Normal,Normal
144431303168,9.439984321594238,-0.28504499793052673,0.11964113265275955,0.022372281178832054,0.21509459614753723,-0.038636088371276855,Normal,Normal
144431305604,9.61944580078125,-0.3616153299808502,-0.5003990530967712,0.010155336000025272,0.23708508908748627,-0.039857782423496246,Normal,Normal
144431308039,9.878170013427734,-0.41186460852622986,-1.2711870670318604,0.010155336000025272,0.19127154350280762,-0.03436015918850899,Normal,Normal
144431310474,10.237093925476074,-0.4405784606933594,-2.008774518966675,-0.006948387715965509,0.08498412370681763,-0.023975754156708717,Normal,Normal
144431312909,10.452746391296387,-0.39990049600601196,-2.39401912689209,-0.009391776286065578,-0.050013117492198944,-0.014813045971095562,Normal,Normal
144431315345,10.469496726989746,-0.28983065485954285,-2.307877540588379,-0.014278554357588291,-0.1721825748682022,-0.0068720318377017975,Normal,Normal
144431317780,10.225129127502441,-0.2153540402650833,-1.7668004035949707,-0.024662958458065987,-0.2399866133928299,-0.0050394898280501366,Normal,Normal
144431320215,9.894919395446777,-0.14356936514377594,-1.0079765319824219,-0.010002624243497849,-0.24487338960170746,-0.005650337319821119,Normal,Normal
144431322650,9.562018394470215,-0.08853443711996078,-0.2632105052471161,-0.010002624243497849,-0.18134528398513794,-0.008704573847353458,Normal,Normal
144431325086,9.214759826660156,-0.10767702013254166,0.2922234535217285,-0.007559234742075205,-0.0695602297782898,-0.012980503961443901,Normal,Normal
144431327521,9.06401252746582,-0.16031911969184875,0.43579283356666565,0.004657710436731577,0.055052608251571655,-0.00992626789957285,Normal,Normal
144431329956,9.253045082092285,-0.19621145725250244,0.0933200865983963,0.00038177953683771193,0.14423631131649017,-0.011147962883114815,Normal,Normal
144431332391,9.523733139038086,-0.23688943684101105,-0.5171487927436829,0.008933641016483307,0.1790546029806137,-0.004428642801940441,Normal,Normal
144431334827,9.827920913696289,-0.28983065485954285,-1.2329018115997314,0.021150587126612663,0.1540098637342453,0.0022906772792339325,Normal,Normal
144431337262,10.117452621459961,-0.30179476737976074,-1.8481563329696655,0.016874656081199646,0.08254073560237885,0.008399149402976036,Normal,Normal
144431339697,10.2418794631958,-0.2679961323738098,-2.1571295261383057,0.029091600328683853,-0.00908635277301073,0.012064233422279358,Normal,Normal
144431342132,10.17727279663086,-0.24167509377002716,-2.059023857116699,0.03092414326965809,-0.09277242422103882,0.01572931744158268,Normal,Normal
144431344568,9.918848037719727,-0.23449662327766418,-1.628016710281372,0.02664821222424507,-0.1330883502960205,0.009620844386518002,Normal,Normal
144431347003,9.581160545349121,-0.24646073579788208,-1.0319048166275024,0.029091600328683853,-0.1214822456240654,0.004123218823224306,Normal,Normal
144431349438,9.337093353271484,-0.2874378263950348,-0.5482555031776428,0.03336753323674202,-0.07078192383050919,0.0004581354442052543,Normal,Normal
144431351873,9.22433090209961,-0.3568296730518341,-0.28983065485954285,0.023593975231051445,0.00129805039614439,-0.0038177953101694584,Normal,Normal
144431354309,9.317950248718262,-0.368793785572052,-0.35443684458732605,0.021150587126612663,0.07032378762960434,-0.006261184345930815,Normal,Normal
144431356744,9.672088623046875,-0.33050861954689026,-0.7133602499961853,0.011987877078354359,0.10392039269208908,-0.008704573847353458,Normal,Normal
144431359179,10.210772514343262,-0.28983065485954285,-1.2831511497497559,0.0064902519807219505,0.09231429547071457,-0.014202198944985867,Normal,Normal
144431361614,10.58674430847168,-0.22971096634864807,-1.7237296104431152,0.004046862944960594,0.04161396995186806,-0.02214321307837963,Normal,Normal
144431364049,10.778170585632324,-0.2105683982372284,-1.9151554107666016,0.0009926267666742206,-0.02557922899723053,-0.025808297097682953,Normal,Normal
144431366485,10.761421203613281,-0.20338992774486542,-1.7883358001708984,-0.0032833039294928312,-0.08544225990772247,-0.027029991149902344,Normal,Normal
144431368920,10.45513916015625,-0.18424734473228455,-1.319043517112732,-0.009391776286065578,-0.10560022294521332,-0.02641914412379265,Normal,Normal
144431371355,9.981060981750488,-0.20099709928035736,-0.6559324860572815,-0.0038941511884331703,-0.07139277458190918,-0.023975754156708717,Normal,Normal
144431373790,9.545269012451172,-0.18424734473228455,-0.07657032459974289,0.0034360159188508987,-0.0011453386396169662,-0.020310672000050545,Normal,Normal
144431376226,9.233902931213379,-0.14117653667926788,0.26560330390930176,0.004657710436731577,0.09109259396791458,-0.02092151902616024,Normal,Normal
144431378661,9.073583602905273,-0.059820566326379776,0.27038896083831787,0.01626380905508995,0.17294612526893616,-0.01847812905907631,Normal,Normal
